inputaddr,lng,lat,x,y,b,z,hc,lc,rc,bn
"서울특별시 중구  을지로 234",127.00394024622116,37.56647591490284,956192,1952017,,"04561","1114060500","1114015100","111403101006","1114015100100720001012687"
"서울특별시 중구  퇴계로 375-1",127.01338049577008,37.56527134344809,957025,1951879,,"04566","1114061500","1114016200","111403101011","1114016200102500010023338"
"\"서울특별시 중구  동호로 5길 15, 약수지구대\"",127.0123790232462,37.55214356666088,956929,1950423,,"04596","1114063500","1114016200","111404103113","1114016200108440003007429"
"\"서울특별시 중구  다산로 248 (신당동, 신당파출소)\"",127.01638264953057,37.56504031558618,957290,1951852,,"04577","1114065000","1114016200","111403101014","1114016200101000001004680"
"서울특별시 중구  동호로 261",127.0048065802828,37.55876400996635,956264,1951161,,"04620","1114058000","1114014400","111403005001","1114014400101970028017066"
"서울특별시 중구  퇴계로 178",126.99157913169267,37.56088003973405,955097,1951402,,"04627","1114057000","1114013700","111403101011","1114013700100200005017812"
"서울특별시 중구 충무로56-1",126.99284526308762,37.56618541035684,955212,1951990,,"04549","1114060500","1114015500","111403101009","1114015500102910050012805"
"서울특별시 종로구  종로17길 4 종로2가파출소",126.98892051579286,37.57050396381982,954868,1952471,,"03140","1111061500","1111013800","111104100310","1111013800100390002017417"
"서울특별시 종로구  삼일대로 386",126.98808184961794,37.56895001376666,954793,1952299,,"03191","1111061500","1111013500","111102100001","1111013500100050010017439"
"서울특별시 종로구  세검정로 226 ",126.95846025737686,37.60002235647169,952197,1955761,,"03017","1111055000","1111018500","111103005005","1111018500100950001025701"
"서울특별시 종로구  평창문화로 46",126.96662475061744,37.60525126039551,952921,1956337,,"03011","1111056000","1111018300","111103100023","1111018300102730003023364"
"서울특별시 종로구  삼청로 66",126.98112184433042,37.58141227810147,954186,1953685,,"03053","1111054000","1111014200","111103100007","1111014200100010001026040"
"서울특별시 종로구  효자로 9",126.97400796848494,37.57677492137438,953555,1953174,,"03044","1111053000","1111010600","111103100017","1111010600100350053028196"
"서울특별시 종로구  자하문로 92-1",126.97058032816471,37.58423174373373,953257,1954003,,"03047","1111051500","1111010300","111103100012","1111010300100120001031332"
"서울특별시 종로구  자하문로17길 24",126.96942196215244,37.581477443400274,953153,1953698,,"03035","1111051500","1111011100","111104100269","1111011100100450016029082"
"서울특별시 종로구  송월길 167(교북동 10-38)",,,,,,,,,,
"서울특별시 중구  세종대로 141",126.97642971366713,37.568943979138425,953764,1952304,,"04519","1114055000","1114010300","111402005001","1114010300100680001018858"
"서울특별시 종로구  경희궁길 6-3",126.97223845840989,37.57075504912692,953395,1952507,,"03175","1111053000","1111012000","111104100010","1111012000100580016028898"
"서울특별시 종로구  사직로9길 1",126.96884881291929,37.576066798212096,953099,1953098,,"03027","1111053000","1111011500","111104100137","1111011500100010028027388"
"서울특별시 종로구  삼봉로 33 청진파출소",126.9790201263966,37.57258786429837,953995,1952707,,"03153","1111061500","1111012400","111103100006","1111012400101460002014119"
"서울특별시 중구  다동길 11",126.97999191518657,37.568004296329846,954078,1952198,,"04521","1114055000","1114010200","111404103026","1114010200100460000018920"
"서울특별시 중구  통일로 13",126.97156694656488,37.556808207517925,953327,1950960,,"04509","1114054000","1114012000","111403000008","1114012000101220017021973"
"서울특별시 중구  명동길 30 명동파출소",126.98396301613812,37.56358709346294,954426,1951706,,"04536","1114055000","1114012700","111404103165","1114012700100500014019589"
"서울특별시 중구  남대문시장4길 28-16",126.97639732592972,37.55901099019504,953755,1951202,,"04528","1114054000","1114011200","111404103020","1114011200100510001021029"
"서울특별시 중구  중림로 36",126.9671210557076,37.55788786972278,952935,1951082,,"04502","1114068000","1114017100","111403101007","1114017100102030000001435"
"서울특별시 중구  퇴계로6길 3-10",126.97882668582636,37.55809335057991,953969,1951099,,"04634","1114054000","1114012100","111404103373","1114012100101650001021215"
"서울특별시 중구  서소문로 131-1 서소문파출소",126.97546908801499,37.56382907894934,953676,1951737,,"04515","1114052000","1114016600","111403005010","1114016600100240000022788"
"서울특별시 서대문구  독립문로 25-1",126.96111318493558,37.569884564176284,952412,1952416,,"03734","1141052000","1141010700","114103112005","1141010700101000001029516"
"서울특별시 서대문구  신촌역로 22",126.94301136094346,37.55855174991218,950806,1951168,,"03766","1141058500","1141011200","114103112007","1141011200100270014024198"
"서울특별시 서대문구 세검정로1길 112",126.94641950238503,37.59524346696641,951131,1955237,,"03611","1141066000","1141011800","114104136176","1141011800100480461000001"
"서울특별시 서대문구  연희로25길 73",126.93284573819038,37.57027492517223,949916,1952474,,"03699","1141061500","1141011700","114104136269","1141011700100860012019979"
"서울특별시 서대문구  가재울로4길 51",126.92403661613051,37.57603692860598,949142,1953118,,"03692","1141070000","1141012000","114104136006","1141012000103360021006425"
"서울특별시 서대문구  증가로 244",126.91287232555021,37.582994371399685,948161,1953896,,"03677","1141072000","1141011900","114103112010","1141011900103330005031382"
"서울특별시 서대문구  통일로 441-1",126.9445576989377,37.588168200907006,950962,1954453,,"03639","1141062000","1141011100","114103000008","1141011100101730001016995"
"서울특별시 서대문구  연희로 298",126.93621038259057,37.583603886813194,950222,1953951,,"03653","1141068500","1141011800","114103112019","1141011800104240000009683"
"서울특별시 종로구  창경궁로 279 ",127.00140881303365,37.58610558398263,955980,1954196,,"03076","1111065000","1111016900","111103005008","1111016900100920001008723"
"서울특별시 종로구  이화장2길 33",127.00604554464321,37.57860785800975,956385,1953362,,"03088","1111064000","1111016800","111104100244","1111016800102010010000001"
"서울특별시 종로구  성균관로 78",126.99760445986256,37.589280211723256,955646,1954550,,"03069","1111065000","1111017000","111103100008","1111017000100270055008280"
"서울특별시 종로구  지봉로13길 20-12",127.01354360464451,37.57849477991105,957047,1953346,,"03094","1111069000","1111017400","111104100383","1111017400100230875000001"
"서울특별시 종로구  종로58가길 19 동묘파출소",127.01711453080696,37.57269575454109,957359,1952701,,"03114","1111071000","1111017500","111104100358","1111017500102420007001250"
"서울특별시 종로구  창신길 98",127.01052486396851,37.575985571875535,956779,1953069,,"03096","1111068000","1111017400","111104100453","1111017400105940008003549"
"서울특별시 종로구  동호로 407",127.00163583757444,37.57073859603285,955991,1952491,,"03195","1111063000","1111016300","111103005001","1111016300101380001012104"
"서울특별시 종로구  종로41나길 24-6",127.00487125505215,37.572942483218206,956278,1952734,,"03125","1111063000","1111016400","111104100339","1111016400102380016011079"
"서울특별시 용산구  백범로 329",126.96618293454985,37.538612787596776,952840,1948944,,"04316","1117056000","1117011200","111703005016","1117011200100250002019570"
"\"서울특별시 용산구  후암로16나길 17, 용중지구대\"",126.97848134909248,37.549159459343464,953933,1950108,,"04331","1117051000","1117010100","111704106573","1117010100102440103027069"
"서울특별시 용산구  이태원로 184",126.99440809799844,37.534311368849615,955331,1948453,,"04406","1117065000","1117013000","111703102009","1117013000101270010009619"
"\"서울특별시 용산구  대사관로34길 53, 한남파출소\"",127.00634783094077,37.53108095837891,956384,1948089,,"04410","1117068500","1117013100","111704106031","1117013100106220003006756"
"\"서울특별시 용산구  보광로 25-1, 보광파출소\"",127.00024259523053,37.52671075710476,955842,1947607,,"04394","1117070000","1117013600","111703102003","1117013600102230005002479"
"서울특별시 용산구  한강대로198-2",126.97471253002902,37.536109227713936,953592,1948662,,"04353","1117062500","1117012400","111702005005","1117012400100160000014268"
"서울특별시 용산구  서빙고로67",126.97041169791757,37.52485917277445,953205,1947416,,"04385","1117062500","1117012700","111703102004","1117012700100240000000001"
"서울특별시 성북구  아리랑로5길 54",127.01240154834886,37.59731916055174,956957,1955435,,"02826","1129059000","1129010300","112904121416","1129010300106300005000001"
"서울특별시 성북구  지봉로21길 45",127.0165935498249,37.586718568793586,957321,1954257,,"02870","1129061000","1129013200","112904121692","1129013200100010001000001"
"서울특별시 성북구  삼양로13길 51 길음지구대",127.01926017575505,37.61060604582179,957570,1956906,,"02724","1129066000","1129013400","112904121275","1129013400112810005000001"
"서울특별시 성북구  솔샘로 111",127.0086079084808,37.61606936300189,956633,1957517,,"02702","1129065000","1129013300","112903005042","1129013300102390003000001"
"서울특별시 성북구  정릉로26길 6 정릉2파출소",127.01072289068232,37.60455900918494,956813,1956239,,"02814","1129063000","1129013300","112904121613","1129013300109660174033391"
"서울특별시 성북구  성북로 94  성북파출소",126.998472463802,37.59327685605577,955725,1954993,,"02837","1129052500","1129010100","112903107008","1129010100100660023052273"
"서울시 동대문구 사가정로 2길 9",127.05106208615788,37.57129744267722,960356,1952531,,"02601","1123060000","1123010500","112304115180","1123010500107140000000001"
"서울특별시 동대문구  청계천로549",127.03721440848031,37.57283935583732,959134,1952708,,"02590","1123053600","1123010200","112303100021","1123010200106960010038795"
"서울특별시 동대문구 약령시로21길 15",127.04527678959253,37.58411048777876,959852,1953955,,"02486","1123070500","1123010700","112304115249","1123010700102320002013825"
"서울특별시 동대문구 약령시로 17길 59-11",127.04202859798261,37.58556712442075,959566,1954118,,"02480","1123054500","1123010300","112304115246","1123010300102870033033065"
"서울특별시 동대문구 서울시립대로 56",127.04794140151476,37.57612577337714,960083,1953068,,"02551","1123056000","1123010400","112303105004","1123010400106500001029162"
"서울특별시 동대문구 전농로38다길 21",127.0542335921788,37.58637097836822,960644,1954202,,"02492","1123056000","1123010400","112304115459","1123010400101030570026922"
"서울특별시 동대문구 한천로20길 7",,,,,,,,,,
"서울특별시 동대문구  답십리로 69길 100",127.07440392126564,37.57679199392185,962420,1953131,,"02521","1123066000","1123010600","112304115104","1123010600103290005000001"
"서울특별시 동대문구  한천로 402",127.06811741765578,37.596589777642045,961875,1955330,,"02423","1123074000","1123011000","112303005038","1123011000100920001005844"
"서울특별시 동대문구  한천로 266",127.06802770334238,37.58467365278112,961861,1954008,,"02511","1123073000","1123010900","112303005038","1123010900100430267000001"
"서울특별시 동대문구  회기로18길 2",127.05184942544277,37.59108500334495,960436,1954726,,"02459","1123071000","1123010800","112304115692","1123010800101030046011518"
"\"서울특별시 마포구  독막로22길 8(창전동, 서강지구대)\"",126.92930638993742,37.547345651013934,949588,1949932,,"04078","1144065500","1144011400","114404139076","1144011400104020059028788"
"서울특별시 마포구 마포대로 195-1",126.95404310143313,37.55180711721561,951776,1950414,,"04118","1144055500","1144010100","114402113001","1144010100107850000000002"
"서울특별시 마포구  월드컵북로 30길 24",126.9090775971365,37.56873422137217,947816,1952316,,"03946","1144073000","1144012500","114404139530","1144012500106020000019200"
"서울특별시 마포구  양화로11길 63",126.91346750353951,37.551873918116,948192,1950443,,"04036","1144066000","1144012000","114404139418","1144012000104910000000001"
"서울특별시 마포구 토정로31길 35",126.94308505955001,37.54256218623856,950802,1949394,,"04161","1144059000","1144010500","114404139597","1144010500105030000000001"
"서울특별시 마포구  매봉산로 76",126.8938490715824,37.578283348774804,946478,1953384,,"03927","1144074000","1144012700","114403113007","1144012700100080008129421"
"서울특별시 마포구  망원로2길 63",126.90273796775985,37.554343899166284,947246,1950723,,"04015","1144069000","1144012300","114404139200","1144012300103980001013952"
"서울특별시 마포구  연남로 4",126.92376123199023,37.56033416476177,949107,1951376,,"03989","1144071000","1144012400","114403113016","1144012400103730020015952"
"서울특별시 영등포구  영등포로46길 14",126.90750886046801,37.51800753436808,947642,1946689,,"07302","1156053500","1156010400","115604154725","1156010400100180001035447"
"서울특별시 영등포구  여의공원로 120 여의도지구대",126.92669123090731,37.52962147366343,949345,1947967,,"07243","1156054000","1156011000","115603118018","1156011000100020000000002"
"서울특별시 영등포구  경인로 759",126.89765417582053,37.513586133768435,946768,1946204,,"07299","1156060500","1156012100","115603000028","1156012100100540002024124"
"서울특별시 영등포구 신길동 4533-16",,,,,,,,,,
"서울특별시 영등포구 노량진로 11",,,,,,,,,,
"서울특별시 영등포구  선유로 95",126.88968164930323,37.522720955760555,946070,1947222,,"07272","1156061000","1156012500","115603005074","1156012500101640022020814"
"서울특별시 영등포구  당산로 221",126.90126215538946,37.5336144534789,947101,1948424,,"07213","1156056000","1156011500","115603118004","1156011500100150000027589"
"서울특별시 영등포구  대림로23길 16-1",126.89869846681893,37.49342818448344,946846,1943967,,"07417","1156071000","1156013300","115604154151","1156013300107060008002450"
"서울특별시 영등포구 대림로 197",126.89803710336005,37.49831015659587,946791,1944509,,"07412","1156072000","1156013300","115603118027","1156013300107400004002047"
"서울특별시 영등포구 영신로20길 11",,,,,,,,,,
"서울특별시 성동구  사근동길 5",127.04179832652261,37.56030144501559,959532,1951315,,"04761","1120055000","1120010700","112004109297","1120010700100110007019512"
"서울특별시 성동구  광나루로2길 35 성수지구대",127.0552420102723,37.54822066496523,960713,1949969,,"04792","1120069000","1120011500","112004109030","1120011500102990240000001"
"서울특별시 성동구  성덕정길 77-2",127.05226883445954,37.538060194782396,960445,1948843,,"04775","1120067000","1120011500","112004109340","1120011500103440007006343"
"서울특별시 성동구  마장로 205",127.0326552818002,37.56666518663306,958728,1952025,,"04706","1120053500","1120010300","112003005009","1120010300101020001000001"
"서울특별시 성동구  행당로 89",127.02885214676334,37.557429267155484,958387,1951002,,"04713","1120057000","1120010700","112003103006","1120010700103171994027618"
"서울특별시 성동구  독서당로 211",127.01434618476992,37.54384121885572,957098,1949501,,"04733","1120064500","1120011300","112003005014","1120011300105610000000001"
"서울특별시 성동구  금호로11길 2-1",127.01961927163345,37.55474209383705,957570,1950708,,"04723","1120061500","1120011000","112004109041","1120011000102240000014132"
"서울특별시 성동구  독서당로 373 응봉파출소",127.03002094782903,37.54979948591769,958486,1950155,,"04720","1120058000","1120010800","112003005014","1120010800102750008016593"
"서울특별시 성동구  용답중앙길 49 용답파출소",127.05175792608009,37.56478333272147,960414,1951808,,"04804","1120079000","1120012200","112004109509","1120012200100830005000896"
"서울특별시 동작구  동작대로9길 35",126.97953550754796,37.48053496412739,953984,1942494,,"07015","1159062000","1159010700","115904157166","1159010700110280001034526"
"서울특별시 동작구  등용로12나길 2",126.93329343647608,37.511148582351474,949916,1945914,,"06932","1159066000","1159010800","115904157175","1159010800100680055004921"
"서울특별시 동작구  등용로 24 ",126.93620666946381,37.50593467066909,950170,1945334,,"06937","1159054000","1159010200","115903119001","1159010200103630189026990"
"서울특별시 동작구 사당로17나길 4",126.97325566223108,37.48412158514502,953431,1942895,,"07004","1159064000","1159010700","115904157247","1159010700102570025008272"
"서울특별시 동작구 노량진로 248",126.95364006775341,37.51239818326781,951715,1946042,,"06906","1159051000","1159010400","115903119011","1159010400101500001019261"
"서울특별시 동작구 신대방1다길 24",126.9059468614899,37.48664159468773,947482,1943210,,"07074","1159067000","1159010900","115904157489","1159010900107190002000001"
"서울특별시 동작구 여의대방로 130",126.92057076442109,37.4985670501149,948783,1944525,,"07055","1159066000","1159010800","115903118028","1159010800104170004005452"
"서울특별시 광진구 아차산로 567",127.10331831360364,37.54445304710204,964958,1949532,,"04983","1121581000","1121510400","112153000002","1121510400102310001010520"
"서울특별시 광진구  능동로17길 39 화양지구대",127.07131568580819,37.546540503735365,962132,1949776,,"05010","1121571000","1121510700","112154112127","1121510700101220000017845"
"서울특별시 광진구 능동로 385",127.0827894274198,37.56371630331101,963154,1951677,,"04909","1121574000","1121510100","112153104007","1121510100101650006000001"
"서울특별시 광진구  능동로 346",127.08147325214398,37.560151308532234,963036,1951282,,"04927","1121575000","1121510100","112153104007","1121510100100470033000543"
"서울특별시 광진구 동일로76가길 28",127.08013390192002,37.56880853171184,962922,1952243,,"04905","1121576000","1121510100","112154112232","1121510100106840000005511"
"서울특별시 광진구  용마산로24길 7",127.08726431294578,37.56535446335812,963550,1951857,,"04940","1121577000","1121510100","112154112386","1121510100100180144000087"
"서울특별시 광진구 뚝섬로36길 9",127.0716146523162,37.53385953840322,962152,1948369,,"05091","1121584000","1121510500","112154112260","1121510500105530632012151"
"서울특별시 광진구  자양번영로 80",127.07691876836456,37.536618778828654,962622,1948673,,"05053","1121582000","1121510500","112153104011","1121510500107990002014738"
"서울특별시 광진구  뚝섬로22가길 43번지 자양4파출소",127.06363865662988,37.53519138152727,961448,1948520,,"05084","1121584700","1121510500","112154112239","1121510500100550012015541"
"서울특별시 광진구 광나루로 43길 26 구의파출소",127.09166205451352,37.545891534470954,963929,1949696,,"04978","1121586000","1121510300","112154112033","1121510300101260005007978"
"서울특별시 은평구  은평로 171",126.9264449074806,37.60163773687774,949372,1955957,,"03460","1138058000","1138010700","113803111007","1138010700100840008045664"
"서울특별시 은평구  은평터널로5길 6호",126.9053720076991,37.59186207287898,947505,1954884,,"03446","1138063200","1138010900","113804133219","1138010900101840056013787"
"서울특별시 은평구  진흥로 진흥로200",,,,,,,,,,
"서울특별시 은평구  응암로 208 ",126.9175365351036,37.59052565263434,948578,1954729,,"03467","1138059000","1138010700","113803005055","1138010700105760043020587"
"서울특별시 은평구  연서로 61",126.91507040427467,37.604592381697195,948370,1956291,,"03417","1138062500","1138010800","113803111006","1138010800100620026015725"
"서울특별시 강북구 도봉로 127",127.02826397232059,37.6201515302502,958370,1957961,,"01177","1130555500","1130510100","113053005039","1130510100103270001021712"
"서울특별시 강북구 오현로 4",127.03039579853807,37.61631130838088,958556,1957534,,"01215","1130554500","1130510100","113053108004","1130510100108600146027315"
"서울특별시 강북구  삼양로 305",127.01757830426781,37.63067202384821,957433,1959133,,"01102","1130561500","1130510300","113053005041","1130510300106050409014119"
"서울특별시 강북구 삼각산로 115",127.01709266948924,37.640918246464715,957396,1960270,,"01041","1130562500","1130510300","113053108001","1130510300106050512010008"
"서울특별시 강북구  한천로150길 76",127.0265808068895,37.64433671534329,958235,1960645,,"01052","1130563500","1130510300","113054124579","1130510300101660075007755"
"서울특별시 강북구 인수봉로 227",127.01239843094203,37.639438772913344,956981,1960108,,"01022","1130566000","1130510300","113053108005","1130510300104100342000001"
"서울특별시 강북구  한천로 969",127.03258418113323,37.63597821463884,958760,1959715,,"01067","1130559500","1130510200","113053005038","1130510200104100023016362"
"서울특별시 강북구  월계로 227",127.0481298479032,37.62362733171389,960125,1958338,,"01230","1130560800","1130510200","113053107018","1130510200102420006014699"
"서울특별시 강북구  삼양로 239-1",127.01818265180792,37.62483381707827,957483,1958485,,"01181","1130553400","1130510100","113053005041","1130510100108670128033111"
"서울특별시 금천구 시흥대로57길 45",126.89981522032784,37.45422480340452,946917,1939617,,"08632","1154567000","1154510300","115454151320","1154510300109950002004494"
"서울특별시 금천구  독산로 76길 20",126.90345860413417,37.469539324119246,947250,1941314,,"08557","1154564000","1154510200","115454151153","1154510200101910002008313"
"서울특별시 금천구  탑골로2길 37 백산지구대",126.91259374737152,37.45104410864422,948045,1939257,,"08657","1154571000","1154510300","115454151372","1154510300102440038000258"
"서울특별시 금천구  벚꽃로56길 174",126.88805052322259,37.47993430059245,945895,1942476,,"08512","1154551000","1154510100","115454151236","1154510100101390002014235"
"서울특별시 금천구  벚꽃로10길 89",126.89475640794436,37.46464576177049,946477,1940776,,"08602","1154561000","1154510200","115454151217","1154510200110060096012979"
"서울특별시 중랑구  망우로 391",127.09552933670038,37.59903039987133,964296,1955590,,"02086","1126065500","1126010500","112603005032","1126010500104890007004125"
"서울특별시 중랑구  중랑천로 146",127.07221017779005,37.59798374128855,962237,1955483,,"02113","1126061000","1126010300","112603106011","1126010300103260114012183"
"서울특별시 중랑구 동일로 566",127.07994120129815,37.580940002982615,962911,1953589,,"02236","1126055000","1126010100","112603000001","1126010100101680002023679"
"서울특별시 중랑구  신내로 177",127.09553465828213,37.6147859203133,964304,1957338,,"02024","1126069000","1126010600","112603106007","1126010600106440003000271"
"서울특별시 중랑구  상봉로 27",127.0938776135949,37.58819955636434,964145,1954389,,"02202","1126056500","1126010100","112603106004","1126010100100710024022061"
"서울특별시 중랑구  사가정로41길 45 (면목3.8파출소)",127.08415305060002,37.583208285748654,963284,1953839,,"02222","1126057500","1126010100","112604118360","1126010100115080003025727"
"서울특별시 중랑구  중랑천로 69 상봉파출소",127.07284863676409,37.591325108859394,962290,1954744,,"02118","1126052000","1126010100","112603106011","1126010100101980001000001"
"서울특별시 중랑구 숙선옹주로7길 1",127.08153079508611,37.61461090340033,963068,1957324,,"02031","1126062000","1126010400","112604118425","1126010400101200000000001"
"서울특별시 강남구 언주로108길 20",127.04101874589146,37.50831733781711,959435,1945548,,"06144","1168064000","1168010100","116804166563","1168010100106870010000001"
"서울특별시 강남구 학동로 169",127.02931848735788,37.51386872205968,958404,1946169,,"06046","1168052100","1168010800","116803122011","1168010800100580013006850"
"서울특별시 강남구 학동로 227",127.0338476986754,37.51520266459298,958805,1946315,,"06053","1168053100","1168010800","116803122011","1168010800100890013006540"
"서울특별시 강남구 영동대로112길 4",127.06054313650999,37.5149084078381,961164,1946271,,"06083","1168058000","1168010500","116804166677","1168010500101070003015453"
"서울특별시 강남구 선릉로 624",127.04346096187818,37.5123198165048,959653,1945991,,"06097","1168059000","1168010500","116803122006","1168010500100350001017082"
"서울특별시 강남구 학동로95길 19",127.05427318420794,37.520797814164425,960613,1946927,,"06073","1168056500","1168010400","116804166826","1168010400100660003018688"
"서울특별시 강남구 도산대로 143",127.02413002898817,37.518372739992316,957948,1946671,,"06036","1168051000","1168010700","116802122001","1168010700105390013011904"
"서울특별시 강남구 압구정로 311",127.03561583704375,37.52934288452701,958969,1947883,,"06006","1168054500","1168011000","116803122007","1168011000104830000004930"
"서울특별시 관악구  남부순환로191길 12 당곡지구대",126.93436569278799,37.48600590626638,949994,1943124,,"08756","1162060500","1162010100","116204160234","1162010100109610016039215"
"\"서울특별시 관악구  봉천로 540, 낙성대지구대\"",126.95759793240765,37.47832710990589,952043,1942260,,"08789","1162058500","1162010100","116203005083","1162010100116200009030220"
"서울특별시 관악구  남부순환로188길 12 신림지구대",126.93331745321831,37.484017896687114,949900,1942904,,"08779","1162064500","1162010200","116204160230","1162010200100100484020980"
"서울특별시 관악구  신림로 178 관악산지구대",126.93526020913349,37.47385987612839,950065,1941776,,"08838","1162066500","1162010200","116203120005","1162010200108080402018212"
"서울특별시 관악구 은천로 93",126.94556286365999,37.48919570802155,950986,1943472,,"08715","1162060500","1162010100","116203120009","1162010100117180000027819"
"서울특별시 관악구  남현1가길 29 남현파출소",126.9778692640518,37.474551593686655,953833,1941831,,"08807","1162063000","1162010300","116204160289","1162010300110860001023085"
"서울특별시 관악구  난곡로64 난우파출소",126.91925420276043,37.46111818958918,948641,1940371,,"08861","1162071500","1162010200","116203120003","1162010200117350006000001"
"서울특별시 관악구  난곡로64가길 31",126.91561383095576,37.47992061648189,948332,1942459,,"08772","1162076500","1162010200","116204160149","1162010200115660034003356"
"서울특별시 관악구  신사로 106",126.91419915485125,37.48727769622802,948212,1943276,,"08702","1162068500","1162010200","116203120006","1162010200105170005014344"
"서울특별시 강서구  화곡로 308",126.85038687195332,37.5517780584641,942620,1950469,,"07658","1150059100","1150010300","115003005069","1150010300109800030014709"
"서울특별시 강서구  방화동로 5 ",126.8082763046116,37.56237297960537,938909,1951671,,"07620","1150064000","1150010900","115003115005","1150010900106200111002903"
"서울특별시 강서구  강서로7길 39",126.84555633693869,37.5293529550804,942176,1947984,,"07777","1150054000","1150010300","115004145080","1150010300109010014024938"
"서울강서구 허준로221-22 염강초등학교 1층(임시청사)",126.86498082038436,37.56099707526159,943916,1951483,,"07531","1150060500","1150010400","115003115013","1150010400114920000009405"
"서울특별시 강서구  곰달래로59길 12",126.86313648120884,37.53291024335198,943732,1948368,,"07741","1150057000","1150010300","115004145164","1150010300107760004020809"
"서울특별시 강서구  금낭화로26길 16",126.81468374443745,37.57980619211132,939489,1953601,,"07512","1150064100","1150010900","115004145242","1150010900108220000000549"
"서울특별시 강서구  공항대로59다길 80",126.86740151412084,37.551897485081675,944123,1950472,,"07561","1150051000","1150010100","115004145208","1150010100102720001029403"
"서울특별시 강서구  등촌로 167 ",126.86186929161542,37.54481018576938,943629,1949689,,"07668","1150053000","1150010200","115003005064","1150010200105130006026472"
"서울특별시 강서구  수명로2길 46 ",126.82604519313914,37.54940629449756,940468,1950221,,"07641","1150061100","1150010600","115004145382","1150010600107480005000001"
"서울특별시 강서구  강서로45다길 71",126.83517780489233,37.54467193445941,941271,1949690,,"07709","1150056000","1150010300","115004145054","1150010300110190000029859"
"서울특별시 강서구 마곡중앙5로 32",,,,,,,,,,
"\"서울특별시 강동구  구천면로 141, 천호지구대\"",127.120772166438,37.54257247792216,966499,1949317,,"05246","1174061000","1174010900","117403016054","1174010900103370121011550"
"서울특별시 강동구 양재대로96길 35",127.13918487286054,37.529452342440514,968120,1947855,,"05372","1174070000","1174010600","117404172273","1174010600104950000000764"
"서울특별시 강동구  성내로 57 성내지구대 ",127.12695412133333,37.52867522890697,967039,1947773,,"05397","1174064000","1174010800","117403124006","1174010800105410001007016"
"서울특별시 강동구  고덕로 137 암사지구대",127.14078267240293,37.55499261751004,968272,1950688,,"05236","1174059000","1174010700","117403124001","1174010700104140019000001"
"서울특별시 강동구  진황도로 239 둔촌파출소",127.1456555406463,37.52533470111182,968690,1947396,,"05413","1174070000","1174010600","117403124008","1174010600101150000000001"
"서울특별시 강동구 동남로 895 명일파출소",127.15608455484208,37.55364108104339,969623,1950533,,"05269","1174054000","1174010100","117403000034","1174010100100470020019103"
"서울특별시 강동구  아리수로91길 20",127.17321031006452,37.564866508906235,971140,1951773,,"05211","1174051500","1174011000","117404172209","1174011000106780002000001"
"서울특별시 강동구  고덕로 61길61",127.15170866521412,37.55731479144534,969238,1950942,,"05231","1174055000","1174010200","117404172031","1174010200104940000018625"
"서울특별시 강동구 고덕로 80길 7",127.16584356918452,37.55621092223829,970486,1950815,,"05274","1174052000","1174010300","117404172034","1174010300101210000020729"
"서울특별시 성북구  화랑로32가길 20 석관파출소",127.05526577166145,37.608962570454956,960747,1956708,,"02790","1129081000","1129013900","112904121772","1129013900104070003000001"
"서울특별시 성북구 장위로174 장위지구대",,,,,,,,,,
"서울특별시 성북구  종암로32길 5 월곡지구대",127.03240784334693,37.60442158327691,958727,1956214,,"02739","1129071500","1129013600","112904121674","1129013600100901152000001"
"서울특별시 성북구  종암로23길 52",127.0312680551394,37.60009962772771,958624,1955735,,"02803","1129070500","1129013500","112904121667","1129013500100800009054553"
"서울특별시 구로구 새말로 26 신구로지구대",126.88389713131279,37.502275317937,945544,1944957,,"08292","1153056000","1153010200","115303116007","1153010200105690003020776"
"서울특별시 구로구  고척로1길 34 오류지구대",126.83884411479404,37.49481192171812,941556,1944156,,"08255","1153077000","1153010800","115304148134","1153010800100810130005204"
"서울특별시 구로구  도림로 63 구일지구대",126.89070065335923,37.48924998757655,946136,1943508,,"08313","1153055000","1153010200","115303116010","1153010200107660238000001"
"서울특별시 구로구 중앙로 15길 30 고척지구대",126.8583025684057,37.50660074121093,943285,1945452,,"08240","1153073000","1153010600","115304148463","1153010600103390003000001"
"서울특별시 구로구  개봉로18길 5 개봉지구대",126.85644929965696,37.49183552766256,943110,1943815,,"08332","1153075000","1153010700","115304148042","1153010700102590001000001"
"서울특별시 구로구  디지털로31길 86 구로3파출소",126.89140038677922,37.48665769135994,946196,1943220,,"08371","1153054000","1153010200","115304148335","1153010200102560001022932"
"서울특별시 구로구 남부순환로 1275 가리봉파출소",126.89265967543032,37.479209957504914,946302,1942393,,"08395","1153059500","1153010300","115302000003","1153010300101360080000001"
"서울특별시 구로구 오리로 1102-8",126.84257147397658,37.48385424711916,941877,1942938,,"08350","1153078000","1153011100","115303000022","1153011100200130001003312"
"서울특별시 서초구 신반포로190",127.00518949685271,37.5059643584631,956267,1945303,,"06545","1165058100","1165010700","116503121017","1165010700100190005000001"
"서울 서초구 서운로 38",127.02898614452573,37.48752068525392,958360,1943246,,"06728","1165052000","1165010800","116503121016","1165010800113560006023040"
"서울 서초구 반포대로30길 40",127.01079084681989,37.491971568743736,956754,1943748,,"06646","1165053000","1165010800","116504163239","1165010800115550004000001"
"서울 서초구 남부순환로356길 9",127.0378500732212,37.48454514515621,959142,1942912,,"06738","1165065100","1165010200","116504163088","1165010200100010003000001"
"서울 서초구 효령로 297",127.01673884570668,37.48528993100803,957276,1943004,,"06643","1165051000","1165010800","116503121021","1165010800116030016024175"
"서울 서초구 바우뫼로 45",127.0271732092285,37.47185679025044,958191,1941509,,"06762","1165065100","1165010300","116503121009","1165010300100690000006007"
"서울특별시 서초구 헌릉로 226",127.06491936390941,37.45494797033865,961520,1939617,,"06800","1165066000","1165010900","116503000033","1165010900101840001000001"
"서울특별시 양천구  목동동로 373",126.8784541189844,37.53515509136413,945087,1948608,,"07983","1147055000","1147010200","114703114001","1147010200109070003016245"
"서울특별시 양천구  등촌로 166",126.86236980851181,37.54452445912832,943673,1949657,,"07951","1147053000","1147010200","114703005064","1147010200106570023000001"
"서울특별시 양천구  중앙로32길 65",126.86076542426314,37.52029658772562,943513,1946970,,"08087","1147062000","1147010100","114704142372","1147010100110210008007301"
"서울특별시 양천구 목동로17길 5",126.86357056149974,37.52444892768446,943764,1947429,,"08022","1147065000","1147010100","114704142109","1147010100109970003002591"
"서울특별시 양천구 지양로 55",126.83438484070012,37.52053843878051,941182,1947013,,"08038","1147061100","1147010300","114703114013","1147010300109870000007920"
"서울특별시 양천구  남부순환로59길 8 ",126.83225656191723,37.53205464936895,941003,1948292,,"07921","1147056000","1147010300","114704142050","1147010300101320003015638"
"서울특별시 양천구  중앙로 205",126.85498377604327,37.514920153605026,942998,1946377,,"08078","1147064000","1147010100","114703005068","1147010100112640000004980"
"서울특별시 양천구  남부순환로31길 37",126.83067717799901,37.539076201081514,940869,1949072,,"07904","1147060000","1147010300","114704142031","1147010300100590005009639"
"서울특별시 송파구  양재대로71길 5-6",127.12574462927192,37.51024763082983,966924,1945729,,"05639","1171056100","1171011100","117104169372","1171011100102040008017409"
"서울특별시 송파구  올림픽로 101",127.08213773521321,37.512102432111675,963071,1945951,,"05501","1171067000","1171010100","117103123023","1171010100100190005000002"
"서울특별시 송파구  백제고분로 238",127.09274606938484,37.50267520894077,964004,1944901,,"05584","1171061000","1171010600","117103123006","1171010600100620003008124"
"서울특별시 송파구  중대로 179",127.12531836826513,37.49818606942336,966881,1944391,,"05715","1171062000","1171010700","117103123016","1171010700100370000006852"
"서울특별시 송파구 충민로2길 18",127.12692234181014,37.47821693128703,967014,1942175,,"05816","1171064600","1171010900","117104169486","1171010900108410000000001"
"서울특별시 송파구  마천로 41길 8",127.14821029998674,37.49703060438693,968904,1944255,,"05756","1171055000","1171011400","117104169102","1171011400101270008019233"
"서울특별시 송파구 새말로15길 9",127.12971562935648,37.48515721146273,967264,1942944,,"05802","1171064600","1171010800","117104169237","1171010800100920000003091"
"서울특별시 송파구  토성로 64",127.11676771122688,37.52875978987313,966139,1947786,,"05537","1171052000","1171010300","117103123019","1171010300104030011024938"
"서울특별시 송파구  마천로8길 17",127.12810342681419,37.50690202028368,967131,1945357,,"05659","1171057000","1171011200","117104169131","1171011200100410019014101"
"서울특별시 송파구  올림픽로35길 12 ",127.11255677567792,37.52014709922663,965763,1946832,,"05507","1171069000","1171010200","117104169554","1171010200100200005000031"
"서울특별시 송파구 위례순환로 369",,,,,,,,,,
"서울특별시 노원구  노원로17길 64번지",127.06835328952293,37.64201826862833,961919,1960370,,"01787","1135062500","1135010600","113504130063","1135010600105110000010516"
"서울특별시 노원구  월계로55길 58",127.05928926006736,37.63368342791372,961115,1959449,,"01864","1135058000","1135010200","113504130336","1135010200103200005017401"
"서울특별시 노원구  동일로 1034",127.07459634236385,37.62257200029646,962460,1958210,,"01845","1135059500","1135010300","113503000001","1135010300105670018000001"
"서울특별시 노원구 노원로431",127.06691771783642,37.65500127854818,961799,1961811,,"01752","1135069500","1135010500","113503110002","1135010500107200005000792"
"서울특별시 노원구  한글비석로 277",127.07733952648864,37.65243421655658,962717,1961522,,"01713","1135062100","1135010600","113503110009","1135010600103590006010891"
"서울특별시 노원구  한글비석로 489 마들지구대",127.06361925698062,37.66458834595669,961513,1962876,,"01678","1135071000","1135010500","113503110009","1135010500106810000000542"
"서울특별시 노원구  상계로35길 29(임시청사)",127.07785523738667,37.671472271406735,962772,1963634,,"01635","1135066500","1135010500","113504130289","1135010500101110041002675"
"서울특별시 노원구  동일로 1693",127.0550480742181,37.67968069849634,960765,1964554,,"01604","1135063000","1135010500","113503000001","1135010500112610000009566"
"서울특별시 서초구  동작대로 34",126.98214441647131,37.479446768492984,954214,1942372,,"06691","1165061000","1165010100","116502005009","1165010100104420004014182"
"서울특별시 서초구  신반포로 16길 15-14",126.99696726580227,37.502107876340744,955538,1944879,,"06549","1165057000","1165010700","116504163754","1165010700100160004000001"
"서울특별시 서초구  동광로19길 38",126.98884171490023,37.494150061974935,954815,1944000,,"06557","1165059000","1165010100","116504163118","1165010100107740009016396"
"서울특별시 서초구  효령로 31길 64",126.9952792378892,37.483956327657125,955378,1942866,,"06683","1165060000","1165010100","116504163632","1165010100109240002014935"
"서울특별시 은평구  연서로 290",126.9265762303425,37.62142274347273,949397,1958152,,"03347","1138053000","1138010300","113803111006","1138010300104230016037132"
"서울특별시 은평구  갈현로 195",126.91270970733767,37.61521644181984,948169,1957471,,"03325","1138055200","1138010400","113803111001","1138010400105060045031483"
"서울특별시 은평구  진관3로 38 진관파출소",126.92090264886868,37.63994450655478,948909,1960210,,"03302","1138069000","1138011400","113803111011","1138011400100680001000001"
"서울특별시 은평구  통일로 737",126.9289891267777,37.611150185453255,949603,1957011,,"03396","1138057000","1138010600","113803000008","1138010600100050017026151"
"서울특별시 도봉구 노해로 392",127.05171995455785,37.65228556206008,960457,1961516,,"01418","1132051400","1132010700","113203005047","1132010700100330002014526"
"서울특별시 도봉구  도봉로104길 49-5",127.03461124684995,37.64352141060626,958943,1960551,,"01460","1132051200","1132010700","113204127093","1132010700106470010017415"
"서울특별시 도봉구  도봉로145길 45 방학파출소",127.04001334647404,37.664507664375165,959431,1962877,,"01345","1132069000","1132010600","113204127137","1132010600106870003004071"
"서울특별시 도봉구  시루봉로5길 10",127.02718241520725,37.65850812404455,958296,1962217,,"01362","1132071000","1132010600","113204127267","1132010600102710004000473"
"서울특별시 도봉구  도봉로169길 43 도봉1파출소",127.04340251613655,37.6794739474704,959738,1964536,,"01306","1132052100","1132010800","113204127168","1132010800105940024011795"
"서울특별시 도봉구 도봉로 180나길 33",127.04928361747301,37.683994215050134,960259,1965035,,"01319","1132052200","1132010800","113204127184","1132010800100690002010365"
"서울특별시 도봉구  방학로3길 132",127.03800394946425,37.65759558871423,959250,1962111,,"01394","1132067000","1132010500","113204127222","1132010500100430003007357"
"서울특별시 도봉구  노해로 139 숭미파출소",127.02558576492044,37.64751443566575,958149,1960998,,"01381","1132066000","1132010500","113203005047","1132010500103490034008917"
"서울특별시 강남구  언주로 426",127.04372019572122,37.50133326221047,959670,1944772,,"06214","1168065000","1168010100","116803005086","1168010100107110000000001"
"서울특별시 강남구  삼성로 203",127.06261766449302,37.49486988260817,961337,1944047,,"06280","1168060000","1168010600","116803122005","1168010600105980000000001"
"서울특별시 강남구  밤고개로1길 48",127.10481013326671,37.48912365033242,965064,1943393,,"06349","1168075000","1168011500","116804166315","1168011500107180001001439"
"서울특별시 강남구  헌릉로 623",127.1073674860788,37.46517390553577,965279,1940735,,"06376","1168070000","1168011100","116803000033","1168011100101200009004509"
"서울특별시 강남구  일원로3길 35 일원파출소",127.08337868323173,37.492412097534576,963171,1943766,,"06338","1168073000","1168011400","116804166706","1168011400106210000002258"
"서울특별시 강남구  개포로 261(1268)",127.05116911188038,37.479774206285754,960317,1942377,,"06306","1168069000","1168010300","116803122001","1168010300102680000020336"
"부산광역시 중구  해관로 19",129.03555440928366,35.10053821603093,1139956,1679456,,"48956","2611051000","2611010400","261103125007","2611010400100230017004894"
"부산광역시 중구  동영로 77",129.0321908577691,35.11191412058659,1139630,1680713,,"48915","2611060000","2611010100","261103125003","2611010100102770017008933"
"부산광역시 중구  보수대로44번길 27",129.02379537636625,35.10298574075563,1138880,1679711,,"48974","2611056000","2611012600","261104175163","2611012600100020008000001"
"부산광역시 중구  흑교로 77",129.0233902212302,35.10597519487468,1138838,1680042,,"48963","2611054500","2611012100","261103125015","2611012100100500006003935"
"부산광역시 중구  중구로 103-1",129.03138658882276,35.105874428678874,1139567,1680042,,"48971","2611053000","2611011900","261103125006","2611011900100260024007384"
"부산광역시 동래구  동래로 109",129.0845455598214,35.20730677072814,1144233,1691368,,"47748","2626054500","2626010700","262603130004","2626010700102500005000001"
"부산광역시 동래구  반송로 207",129.09710495439998,35.19963143054057,1145390,1690535,,"47755","2626074000","2626010200","262603130026","2626010200104200077019075"
"부산광역시 동래구  우장춘로 16",,,,,,,,,,
"부산광역시 동래구  중앙대로1277번길 41",129.0755750665476,35.200706950961184,1143428,1690623,,"47831","2626060000","2626010900","262604190454","2626010900101470007006214"
"부산광역시 동래구  석사북로 93",129.06621436184068,35.20574213369254,1142567,1691168,,"47848","2626057000","2626010800","262603130012","2626010800112360010005789"
"부산광역시 동래구  온천천로 359",129.09247660484468,35.19379595624024,1144979,1689881,,"47903","2626051000","2626010400","262603130018","2626010400100820017017362"
"부산광역시 영도구  태종로 618 동삼지구대",129.07326222033703,35.078334768376166,1143432,1677047,,"49101","2620065000","2620012100","262003006003","2620012100103080003025190"
"부산광역시 영도구  남항시장길 328",129.0429043824858,35.08770501526443,1140648,1678043,,"49070","2620054000","2620010900","262004184047","2620010900101680000005028"
"부산광역시 영도구  태종로 395",129.06624010065104,35.09195894138495,1142768,1678548,,"49010","2620064000","2620012000","262003006003","2620012000100490054005995"
"부산광역시 영도구  태종로 81(대교동2가)",129.0400280174726,35.09224066843964,1140378,1678542,,"49036","2620053000","2620010200","262003006003","2620010200100630000008978"
"부산광역시 동구  초량상로 65번길2",129.03748085065874,35.11782484477589,1140102,1681376,,"48812","2617052000","2617010100","261704181567","2617010100109700020000001"
"부산광역시 동구  망양로 811",129.04353027058968,35.13486057771395,1140624,1683274,,"48706","2617060000","2617010200","261703125011","2617010200104870084013444"
"부산광역시 동구  자성공원로 15",129.0612491411447,35.137401497993544,1142234,1683581,,"48745","2617066000","2617010400","261703127031","2617010400105810000021593"
"부산광역시 동구  중앙대로 491-4",129.05598791925414,35.13719869687312,1141755,1683551,,"48723","2617065000","2617010400","261702000010","2617010400101240009000001"
"부산광역시 동구  범상로 10-1",129.04906142588325,35.14120946175097,1141117,1683986,,"48718","2617065000","2617010400","261703127010","2617010400114380094013808"
"부산광역시 부산진구  동평로 342",129.06257183790788,35.17443147830126,1142290,1687690,,"47206","2623056000","2623010100","262303129011","2623010100105110006000002"
"부산광역시 부산진구  부전로 185",129.06108475985926,35.16384777731594,1142173,1686514,,"47248","2623051000","2623010300","262303129023","2623010300102800054014350"
"부산광역시 부산진구  신암로 56",129.0554741409931,35.147113987214794,1141691,1684650,,"47343","2623078000","2623010400","262303129031","2623010400112580088000001"
"부산광역시 부산진구  당감로 17-1",129.03941190693453,35.16327766431125,1140200,1686420,,"47180","2623067000","2623010900","262303129006","2623010900102570007008607"
"부산광역시 부산진구  성지로113번길 27",129.0516671452916,35.1790075891477,1141289,1688182,,"47125","2623055000","2623010700","262304187438","2623010700102050024020328"
"부산광역시 부산진구  가야공원로 10",129.02949288003853,35.15246677931393,1139315,1685207,,"47325","2623072000","2623011000","262303129001","2623011000101580001026258"
"부산광역시 부산진구  신천대로 283",129.0501359745357,35.1671891066623,1141170,1686869,,"47186","2623064000","2623010800","262302129001","2623010800106370046010444"
"부산광역시 부산진구  중앙번영로 10",129.06023770046167,35.14478969203827,1142129,1684399,,"47361","2623077000","2623010400","262303129041","2623010400108440052040750"
"부산광역시 부산진구  전포대로 165",129.06499731072174,35.15144527773701,1142551,1685144,,"47298","2623060000","2623010200","262302006005","2623010200108900014042776"
"부산광역시 부산진구 백양대로208번길 137",129.02324458951549,35.162373085772785,1138729,1686297,,"47166","2623076000","2623011100","262304187285","2623011100100010014019870"
"부산광역시 서구 충무대로 84",129.02150286963615,35.07939204582378,1138711,1677091,,"49269","2614068000","2614012400","261402126001","2614012400101770006018319"
"부산광역시 서구  보수대로 258-5",129.01737569025963,35.11710449609119,1138271,1681268,,"49205","2614053000","2614010300","261402006003","2614010300101000002003276"
"부산광역시 서구  임시수도기념로 36",129.01795797208703,35.10353684335375,1138347,1679764,,"49236","2614059000","2614011100","261403126015","2614011100100230007008370"
"부산광역시 서구  해돋이로 267",129.01617562042648,35.10030429878337,1138190,1679403,,"49240","2614061500","2614011600","261403126022","2614011600101260081009986"
"부산광역시 남구  전포대로 20번길 47",129.06978469205754,35.13893213512992,1143009,1683763,,"48415","2629070000","2629010900","262904193376","2629010900104250002000002"
"부산광역시 남구  분포로 1",129.11237816056524,35.125380674203114,1146914,1682322,,"48516","2629057000","2629010700","262903131015","2629010700101720018000001"
"부산광역시 남구  수영로 328",129.10198848529313,35.13784341029632,1145945,1683689,,"48508","2629053000","2629010600","262903131037","2629010600100540004000284"
"부산광역시 수영구  수영로554번길 52",129.11521050303244,35.15432042248481,1147120,1685536,,"48299","2650077000","2650010400","265004214271","2650010400101720020020435"
"부산광역시 수영구  광안해변로295번길 22",129.1253718285754,35.157421236196534,1148040,1685895,,"48290","2650080000","2650010300","265004214075","2650010300100340010006862"
"부산광역시 남구 진남로 46번길 37",129.09006275285003,35.13978569009648,1144855,1683887,,"48436","2629055000","2629010600","262904193432","2629010600114750002005540"
"부산광역시 남구  우암로 170",129.07816882973734,35.12464091897733,1143798,1682190,,"48473","2629064500","2629011000","262903131026","2629011000100660003019748"
"부산광역시 남구 신선로 318",129.09573892044205,35.11455625145061,1145417,1681097,,"48560","2629061000","2629010800","262903131019","2629010800101230056012552"
"부산광역시 남구 우암로86",129.0808098941332,35.118205069278005,1144050,1681480,,"48543","2629062000","2629011100","262903131026","2629011100100790002031545"
"부산광역시 해운대구 해운대로161번길 17",129.12349448752062,35.18392628580075,1147821,1688832,,"48055","2635065000","2635010400","263504199252","2635010400111060005011724"
"부산광역시 해운대구  해운대로 398",129.13937152408977,35.16793449466606,1149296,1687082,,"48089","2635052000","2635010500","263502006010","2635010500110080001004444"
"부산광역시 해운대구  좌동순환로433번길 32",129.17900081062908,35.16171156946628,1152917,1686452,,"48114","2635054000","2635010600","263504199224","2635010600115220002000002"
"부산광역시 해운대구  좌동순환로 185",129.1763896107247,35.177841083757066,1152649,1688237,,"48075","2635055400","2635010700","263503133039","2635010700114070007015536"
"부산광역시 해운대구  선수촌로21번길 64",129.11784257609696,35.1974086366582,1147282,1690319,,"48043","2635057000","2635010300","263504199082","2635010300114050009007855"
"부산광역시 해운대구  송정중앙로8번길 65",129.20047475607535,35.18066981313625,1154837,1688588,,"48072","2635056000","2635010800","263504199100","2635010800103230011020182"
"부산광역시 해운대구  아랫반송로 6",129.1467570196196,35.22541877583163,1149863,1693469,,"48018","2635061000","2635010100","263503133028","2635010100107160009003915"
"부산광역시 해운대구  신반송로 177",129.16022385925658,35.229012414821,1151082,1693888,,"48009","2635062000","2635010100","263503133027","2635010100108900001015544"
"부산광역시 해운대구  재반로 197",129.1304125797589,35.19489586959115,1148431,1690059,,"48029","2635058000","2635010300","263503133035","2635010300112910835011713"
"부산광역시 사상구  주례로 141",129.00093660073148,35.14572824515395,1136725,1684420,,"47017","2653066100","2653010600","265303139020","2653010600106140000013802"
"부산광역시 사상구  학감대로 123번길 4",128.98779578154785,35.142031406982326,1135534,1683992,,"47049","2653067000","2653010700","265304217362","2653010700105530004032124"
"부산광역시 사상구  가야대로 39",128.97721832099634,35.15196145156395,1134554,1685079,,"46989","2653064500","2653010500","265302006015","2653010500101650014030680"
"부산광역시 사상구  모라로 110번길 101",128.99633707386027,35.18467180453265,1136241,1688733,,"46934","2653059300","2653010200","265304217142","2653010200105510002012158"
"부산광역시 사상구  삼덕로 73번길 48",,,,,,,,,,
"부산광역시 사상구 낙동대로 740",128.96938625446555,35.12726208801107,1133881,1682329,,"47042","2653068000","2653010800","265302006002","2653010800103450006000132"
"부산광역시 금정구  부곡로 136 (부곡동) 부곡지구대",129.09228785084832,35.22800495545536,1144901,1693675,,"46271","2641058000","2641010900","264103006035","2641010900102940004004381"
"부산광역시 금정구  금정로 49 (장전동) 장전지구대",129.08596878059873,35.22907968372347,1144324,1693785,,"46293","2641061000","2641010800","264103006033","2641010800104220011016581"
"부산광역시 금정구  팔송로39길 56 (남산동) 범어지구대",,,,,,,,,,
"부산광역시 금정구  반송로 482-1 (금사동) 서금지구대",129.11648841564005,35.21608968013341,1147125,1692389,,"46334","2641055500","2641011100","264103130026","2641011100101170005000168"
"부산광역시 금정구  중앙대로 2106 (청룡동) 팔송파출소",129.0931112736909,35.27234330793782,1144897,1698594,,"46214","2641066500","2641010300","264102000010","2641010300100110005005120"
"부산광역시 사하구  낙동대로 264",128.98825001159977,35.09943318248106,1135646,1679268,,"49341","2638051000","2638010100","263802006002","2638010100107470004026046"
"부산광역시 사하구  하신중앙로 316",128.96520308556342,35.10448356199777,1133537,1679797,,"49407","2638056100","2638010300","263803134026","2638010300106150001036165"
"부산광역시 사하구  감천로103",129.0032186828251,35.088329812918296,1137029,1678057,,"49373","2638062000","2638010800","263803006004","2638010800104860011006909"
"부산광역시 사하구  다송로 46",128.9823996310489,35.06350283340993,1135172,1675275,,"49519","2638060200","2638010600","263803134009","2638010600101200036009743"
"부산광역시 사하구  하신중앙로 171",128.96243438056797,35.09382367802806,1133302,1678611,,"49429","2638057200","2638010400","263803134026","2638010400106460000004873"
"부산광역시 사하구  다대로 239",128.9777492523646,35.08109630537831,1134719,1677220,,"49458","2638059000","2638010500","263803134007","2638010500101860015000001"
"부산광역시 연제구 과정로164번길 16",129.10808330455325,35.18597119092105,1146414,1689036,,"47569","2647073000","2647010200","264704211085","2647010200104770001001950"
"부산광역시 연제구 반송로 18",129.08309325844007,35.18681441037713,1144137,1689093,,"47549","2647068000","2647010200","264703130026","2647010200106030041019730"
"부산광역시 연제구 거제대로178번길 51-1",129.0732104300175,35.18403104671005,1143242,1688770,,"47543","2647063000","2647010100","264704211008","2647010100105580003009613"
"부산광역시 연제구 연수로 207-1",129.09352710718,35.17391090111321,1145110,1687677,,"47594","2647070000","2647010200","264703129044","2647010200121330015007442"
"부산광역시 수영구 망미로8번길 74",129.1011890505851,35.17266480810806,1145810,1687550,,"48234","2650074000","2650010100","265004214152","2650010100108230003011454"
"부산광역시 수영구 수영성로 36-1 (수영동)",129.1159382417831,35.17057554777282,1147157,1687340,,"48229","2650073000","2650010200","265003138018","2650010200101910002015128"
"부산광역시 강서구  가락대로 1465",128.90214322151917,35.194950624690634,1127648,1689748,,"46708","2644055000","2644010500","264402136001","2644010500107400001008041"
"부산광역시 강서구  제도로 1191",128.9366761713613,35.216166582542066,1130758,1692146,,"46706","2644053000","2644010300","264403136062","2644010300100820010011892"
"부산광역시 강서구  대저로 284",128.98278793141213,35.21202209092805,1134962,1691748,,"46702","2644051000","2644010100","264403136036","2644010100123380004006556"
"부산광역시 강서구  공항진입로 39",128.95434528194883,35.18120728761743,1132423,1688292,,"46720","2644052000","2644010200","264403136004","2644010200118540002029684"
"부산광역시 강서구  낙동남로604번길 2-17",128.88629306327383,35.112733034321245,1126332,1680609,,"46736","2644056000","2644011100","264404208152","2644011100102620005009469"
"부산광역시 강서구 녹산산단335로 12-22",128.85640895669437,35.08988992598649,1123643,1678038,,"46754","2644056000","2644010900","264403136021","2644010900116330002000001"
"부산광역시 강서구  명지국제2로28번길 13",128.9086280160132,35.09392886425339,1128397,1678552,,"46726","2644053500","2644010400","264403350853","2644010400136020004000001"
"부산광역시 강서구 동선길 134",128.8310173371998,35.05294221442818,1121383,1673909,,"46769","2644058000","2644011900","264404853576","2644011900103410000043895"
"부산광역시 강서구 과학산단2로20번길 7-20",128.83216520088314,35.15117292979284,1121342,1684805,,"46743","2644056000","2644011400","264404208115","2644011400111820004000001"
"부산광역시 북구  금곡대로 66-8",129.00515487150585,35.21557787232725,1136992,1692173,,"46545","2632056000","2632010400","263202132001","2632010400106800010000001"
"부산광역시 북구  시랑로79번길 3",129.00625274360982,35.1988844685777,1137120,1690323,,"46621","2632052100","2632010500","263204196326","2632010500112190010000003"
"부산광역시 북구  은행나무로36번가길 24",129.03914388333465,35.20554838089859,1140103,1691108,,"46615","2632057200","2632010300","263204196345","2632010300108540001000001"
"부산광역시 북구  용당로 6",129.0096851625914,35.23180444361466,1137377,1693979,,"46527","2632054300","2632010200","263203132015","2632010200122840000015218"
"부산광역시 북구  금곡대로 462",129.01308194544583,35.24962276415928,1137656,1695960,,"46509","2632053000","2632010100","263202132001","2632010100111140004010722"
"부산광역시 기장군 기장읍 차성동로 94-6 ",129.21747404350444,35.24586624536781,1156260,1695846,,"46063","2671025000","2671025021","267103140051","2671025021102840003003799"
"부산광역시 기장군 일광면 일광로 77-15 ",129.23240357728076,35.2641806082955,1157583,1697901,,"46044","2671031000","2671031021","267103140037","2671031021100550003009796"
"부산광역시 기장군 장안읍 해맞이로 5 ",129.2442864310566,35.31286543222713,1158569,1703320,,"46033","2671025300","2671025321","267103173096","2671025321102470005012115"
"부산광역시 기장군 정관읍 용수로 17 ",129.17887952167996,35.3253315299648,1152599,1704600,,"46014","2671025600","2671025628","267103140060","2671025628113140000000001"
"부산광역시 기장군 철마면 철마로 473 ",129.1485737607547,35.27499904062322,1149937,1698971,,"46049","2671033000","2671033022","267103006040","2671033022103020001009137"
"대구광역시 중구  국채보상로 99길 12",128.58391559699928,35.871351702381524,1097851,1764407,,"41921","2711058500","2711014000","271104223029","2711014000100150030000001"
"대구광역시 중구 국채보상로 140길 16",128.60602361632985,35.86807585056615,1099851,1764066,,"41944","2711051700","2711010200","271104223021","2711010200102270008010541"
"대구광역시 중구  달구벌대로 2048",128.58766491010763,35.866070715914326,1098196,1763825,,"41965","2711065000","2711015600","271102007002","2711015600103230001000001"
"대구광역시 중구  중앙대로 81길 88",128.58882133795663,35.86963944414115,1098296,1764222,,"41934","2711057500","2711011100","271104223134","2711011100100560001006275"
"대구광역시 동구  효목로19길 143",128.6368648029049,35.883141441893855,1102616,1765769,,"41174","2714059000","2714010300","271404226391","2714010300100470001000001"
"대구광역시 동구  해동로 184",128.64882174960343,35.88644455627824,1103691,1766148,,"41155","2714065500","2714011000","271403142042","2714011000110270020008292"
"대구광역시 동구  반야월로 219",128.71284053976288,35.87228285534265,1109489,1764647,,"41126","2714074700","2714011600","271403142014","2714011600100440000024874"
"대구광역시 동구  대현로 126 ",128.6124009801053,35.88136004438371,1100410,1765546,,"41200","2714052000","2714010100","271403007003","2714010100108190002000001"
"대구광역시 동구  동대구로85길 53 ",128.6242640537251,35.87497474089672,1101489,1764850,,"41256","2714057000","2714010200","271404226058","2714010200100780002026898"
"대구광역시 동구 팔공로 197길 47",128.69146846613344,35.95619628275754,1107446,1773931,,"41009","2714076000","2714013500","271404226303","2714013500105690000009159"
"대구광역시 동구 파계로 546",128.63360551751524,35.97925937869922,1102198,1776427,,"41001","2714076000","2714014200","271403142040","2714014200105800001003355"
"대구광역시 동구 위남로9",128.64012297346795,35.92725056542612,1102853,1770665,,"41019","2714062000","2714010500","271403142033","2714010500115180000000001"
"대구 동구 동내로 120",128.73388724172355,35.8816248928327,1111376,1765707,,"41061","2714075500","2714012500","271403142008","2714012500111140000000001"
"대구광역시 서구  달서로26길 1",128.57148119886224,35.87335654591483,1096726,1764617,,"41798","2717056500","2717010200","271704229092","2717010200104340027008758"
"대구광역시 서구  국채보상로 260",128.55950874048727,35.87100147459494,1095648,1764344,,"41825","2717065000","2717010300","271703007001","2717010300112180005016187"
"대구광역시 서구  국채보상로 117",128.54395344928483,35.86904603569781,1094246,1764112,,"41759","2717067500","2717010600","271703007001","2717010600100440035030179"
"대구광역시 서구  고성로 83",128.57546242106267,35.883526654373114,1097073,1765749,,"41729","2717069500","2717010900","271703007016","2717010900114540003026734"
"대구광역시 서구  달구벌대로 1737",128.55511805233706,35.857309263941666,1095268,1762821,,"41857","2717054000","2717010100","271702007002","2717010100104680005013625"
"대구광역시 남구  봉덕로 87",128.60019983252377,35.845004230363514,1099354,1761501,,"42438","2720053000","2720010200","272003144007","2720010200105540028000001"
"대구광역시 남구  양지로 100",128.5790904467742,35.85124517490766,1097440,1762172,,"42455","2720058600","2720010300","272003144009","2720010300121520007000001"
"대구광역시 남구 대명남로 177",128.57751960765566,35.83581542306036,1097317,1760459,,"42488","2720064000","2720010300","272003144002","2720010300107350002000001"
"대구광역시 남구  두류공원로 113",128.56727251124275,35.84613967408886,1096379,1761594,,"42471","2720059000","2720010300","272003007009","2720010300130470011004031"
"대구광역시 남구  대명남로 55",128.5642909066955,35.8351489470783,1096123,1760372,,"42483","2720061000","2720010300","272003144002","2720010300114580003002832"
"대구광역시 북구  오봉로 122",128.579365042956,35.89843951590078,1097407,1767407,,"41545","2723055000","2723010600","272303145036","2723010600110550002000001"
"대구광역시 북구  경진로1길 50",128.61772451513744,35.89440123051164,1100874,1766998,,"41562","2723067100","2723011200","272304235036","2723011200104310001030746"
"대구광역시 북구  침산로 24",128.58900020762218,35.87866245728042,1098301,1765223,,"41588","2723051000","2723010200","272303007023","2723010200100870000044567"
"대구광역시 북구  연암로 114",128.59478129837086,35.894648646899405,1098803,1767002,,"41540","2723061000","2723011100","272303145034","2723011100108400001007581"
"대구광역시 수성구  고산로 150",128.70651656719429,35.84383945397053,1108957,1761485,,"42266","2726069000","2726011500","272603146002","2726011500113250007027774"
"대구광역시 수성구  청수로 245",128.63469126421973,35.84103213363439,1102474,1761096,,"42113","2726060100","2726010700","272603146028","2726010700101480005004109"
"대구광역시 수성구  무열로 111",128.64885850666158,35.868277858868524,1103718,1764133,,"42051","2726056000","2726010200","272603146010","2726010200109770011034470"
"대구광역시 수성구  들안로 54",128.61718281330783,35.83451560043714,1100901,1760355,,"42173","2726064000","2726011100","272603146008","2726011100101380008000002"
"대구광역시 수성구  지범로 155",128.63718163172928,35.82312157454005,1102722,1759112,,"42196","2726065100","2726011200","272603146024","2726011200112770016004748"
"대구광역시 수성구  동대구로 313",128.62509435948357,35.85848645863737,1101585,1763022,,"42117","2726051000","2726010100","272603007004","2726010100105630008000001"
"대구광역시 수성구  파동로 2길 30",128.62128014807152,35.8086024828213,1101304,1757485,,"42238","2726063000","2726011000","272604238444","2726011000104730004003134"
"대구광역시 달서구  월배로 108",128.52639791467257,35.814102233507114,1092725,1758001,,"42801","2729061500","2729011700","272903007013","2729011700105260010016051"
"대구광역시 달서구  상인서로 36",128.54498176809955,35.814041280975495,1094404,1758012,,"42812","2729062400","2729011500","272903147010","2729011500115280002014775"
"대구광역시 달서구  학산로 184",128.54658904880955,35.83360946566875,1094526,1760184,,"42738","2729064000","2729012200","272903147045","2729012200105000013000002"
"대구광역시 달서구  월성로 69",128.5280631748707,35.83079418731383,1092856,1759854,,"42732","2729060200","2729012000","272903147031","2729012000100860002009938"
"대구광역시 달서구  갈밭로 51",128.52870422336818,35.8032545782609,1092946,1756800,,"42842","2729061500","2729012300","272903351387","2729012300105000001000001"
"대구광역시 달서구  선원로 62",128.49914420246506,35.85896886838384,1090212,1762952,,"42609","2729058500","2729010700","272903147015","2729010700117490002001691"
"대구광역시 달서구  용산로 212",128.53096468958478,35.85652723381151,1093088,1762711,,"42631","2729057100","2729011100","272903147027","2729011100109340005016701"
"대구광역시 달서구  구마로39길 83-16",128.54708768212754,35.84122339799938,1094562,1761029,,"42677","2729051500","2729010100","272904241031","2729010100108360000000001"
"대구광역시 달서구  야외음악당로 202",128.5573693990617,35.85337666730279,1095476,1762387,,"42672","2729055000","2729010200","272903147026","2729010200105320008022199"
"대구광역시 달서구  달구벌대로 1327",128.51257937604993,35.851211054945715,1091434,1762104,,"42620","2729057600","2729010800","272902007002","2729010800107350001002603"
"대구광역시 달서구  선원로 276",128.5228065655625,35.858562387100235,1092349,1762929,,"42617","2729057200","2729011100","272903147015","2729011100104990015002920"
"대구광역시 달서구  야외음악당로 280",128.56478560839528,35.85642157611331,1096142,1762732,,"42666","2729053500","2729010200","272903147026","2729010200101310027023138"
"대구광역시 달서구  달구벌대로 1606",128.54236454158314,35.85174972416698,1094123,1762192,,"42642","2729055500","2729011300","272902007002","2729011300101000008021236"
"대구광역시 달성군 가창면 가창로 1076",128.6231924860577,35.80056968369914,1101487,1756596,,"42936","2771031000","2771031021","277103148002","2771031021105650082039815"
"대구광역시 달성군 논공읍 논공중앙로33길 7",128.45281890153967,35.73031929439949,1086168,1748641,,"42981","2771025300","2771025328","277104244144","2771025328100010129040602"
"대구광역시 달성군 논공읍 비슬로 1788",128.42122248003648,35.7739861476968,1083265,1753457,,"42975","2771025300","2771025322","277103007026","2771025322118090001040664"
"대구광역시 달성군 구지면 창리로11길 51",128.41325268859248,35.65930027397269,1082663,1740730,,"43010","2771038000","2771038021","277104244502","2771038021103720001026132"
"대구광역시 달성군 화원읍 비슬로 2480",128.48993384810157,35.79869352000872,1089448,1756258,,"42956","2771025000","2771025024","277103007026","2771025024111020001001751"
"대구광역시 달성군 화원읍 명천로 100",128.50709227922073,35.80259008823791,1090994,1756706,,"42964","2771025000","2771025026","277103148049","2771025026100560008004475"
"대구광역시 달성군 옥포읍 비슬로 2294 ",128.47214762166567,35.790363770208415,1087850,1755318,,"42972","2771026200","2771026226","277103007026","2771034026101460002008323"
"대구광역시 달성군 다사읍 세천로 100 ",128.47248246017273,35.87316203280768,1087789,1764502,,"42930","2771025600","2771025626","277103148034","2771025626116890001000001"
"대구광역시 달성군 현풍읍 현풍중앙로 70",128.44511139184107,35.69563249166403,1085508,1744787,,"42996","2771026500","2771026524","277103148047","2771036024102570006015337"
"대구광역시 달성군 유가읍 테크노상업로 99",128.46046459835102,35.69388808097766,1086899,1744607,,"43015","2771025900","2771025924","277103341006","2771037024100000000000002"
"대구광역시 달성군 하빈면 달구벌대로 55길 58-4",128.4213877116674,35.876404788966354,1083173,1764817,,"42903","2771033000","2771033028","277104244176","2771033028100720001028473"
"대구광역시 북구  구암로 157",128.5580258522024,35.93187891576885,1095441,1771095,,"41431","2723078000","2723012400","272303145012","2723012400108760002023540"
"대구광역시 북구  동암로 171 ",128.56974672981409,35.943675553542505,1096484,1772415,,"41419","2723080000","2723012200","272303145024","2723012200110990007003970"
"대구광역시 북구  서변로 62",128.59678976129408,35.92136146285133,1098951,1769967,,"41475","2723069500","2723011500","272303145031","2723011500117760000034613"
"대구광역시 북구 한강로 103",128.5209444234846,35.896426035595,1092137,1767127,,"41492","2723071500","2723012900","272303145056","2723012900107260000000001"
"인천광역시 중구  서해대로 399",126.63205569175572,37.46228712172053,923243,1940696,,"22306","2811053000","2811011800","281102008001","2811011800100010028092331"
"인천광역시 동구  송림로 46-1",126.64029872093653,37.47414598544734,923984,1942005,,"22555","2814058000","2814010700","281403150037","2814010700102290003085398"
"인천광역시 중구  제물량로 266",126.61759664222915,37.475483860813114,921978,1942172,,"22312","2811060000","2811013900","281103149064","2811013900100130001201699"
"인천광역시 중구  흰바위로27번길 12",126.4883480247483,37.49346597817029,910571,1944282,,"22371","2811062800","2811014700","281104247402","2811014700127920002222987"
"인천광역시 중구  연안부두로 22 ",126.60317083115108,37.456131569826816,920682,1940037,,"22349","2811052000","2811011800","281103149027","2811011800100600000081036"
"인천광역시 옹진군 영흥면 영흥북로 29",126.49924405795778,37.25611635000555,911255,1917939,,"23118","2872036000","2872036022","287203158030","2872036022100080021010541"
"인천광역시 옹진군 시도로 61번길 91",126.42702750751836,37.533637685022576,905201,1948799,,"23114","2872031000","2872031021","287204274121","2872031021103190000008917"
"인천광역시 옹진군 대청로 7번길 9",124.71499451549326,37.82442642924138,754878,1984175,,"23105","2872034000","2872034021","287204274023","2872034021103840001001090"
"인천광역시 옹진군 연평면 연평로137번길 5",125.70044402754095,37.65978687690862,841270,1963777,,"23108","2872038000","2872038021","287204274134","2872038021103250125007136"
"인천광역시 옹진군 백령면 백령로278번길 57",124.7179031742948,37.97382500826509,755629,2000748,,"23101","2872033000","2872033021","287204274065","2872033021108900001004231"
"인천광역시 옹진군 덕적면 덕적북로 117번길",,,,,,,,,,
"인천광역시 중구 마시란로 314-20 ",126.40132457237603,37.444810103553294,902815,1938970,,"22384","2811063000","2811015000","281103149015","2811015000200940009225979"
"인천광역시 동구  수문통로 77",126.63699470975709,37.482161879943305,923700,1942897,,"22522","2814053000","2814010300","281403150015","2814010300100660775058402"
"인천광역시 중구  참외전로 131",,,,,,,,,,
"인천광역시 동구  샛골로 195 ",126.64518657744279,37.479904983098464,924422,1942640,,"22540","2814057000","2814010300","281403149062","2814010300100120062002028"
"인천광역시 중구 하늘달빛로 118",126.55511453852766,37.48876411176117,916468,1943699,,"22401","2811062200","2811014500","281103149075","2811014500118780008000001"
"미추홀구 인하로 150-1",126.66462281562822,37.448929513547505,926110,1939188,,"22210","2817754000","2817710200","281773008011","2817010200100390013118440"
"용현동 488-109",,,,,,,,,,
"인천 미추홀구 숙골로87번길 22",126.66106337830757,37.47002287086879,925816,1941531,,"22100","2817761000","2817710400","281774854093","2817710400100000000000013"
"인천광역시 미추홀구 주안로 71",126.67762413482934,37.4644157392032,927275,1940896,,"22132","2817762000","2817710500","281773008014","2817010600102630001000001"
"미추홀구 인하로 448번지",126.69643958919916,37.44440902366881,928920,1938662,,"22241","2817770000","2817710600","281773008011","2817010800100130012048448"
"인천 미추홀구 소성로 340",126.68498637446484,37.43724597249026,927900,1937876,,"22238","2817771000","2817710700","281773151009","2817010900103900001097580"
"인천 미추홀구 인하로 196",126.66961441948585,37.448396841849174,926551,1939125,,"22218","2817764000","2817710500","281773008011","2817010600107480001043488"
"미추홀구 용오로 24",126.63797606953334,37.455804713788986,923760,1939972,,"22186","2817757000","2817710200","281773151015","2817010200106230010145407"
"경인로 455-1",,,,,,,,,,
"인천광역시 남동구 만수서로68",126.73367363342123,37.46143048951589,932229,1940523,,"21524","2820057000","2820010300","282003153030","2820010300111190002000001"
"인천광역시 남동구 인하로 623",,,,,,,,,,
"인천광역시 남동구 석산로176",126.71172478824639,37.46046588258938,930287,1940432,,"21548","2820054000","2820010200","282003151029","2820010200109390001024534"
"인천광역시 남동구 용천로74",126.71507272048918,37.45604450889226,930579,1939939,,"21562","2820052000","2820010100","282003153058","2820010100100240001006218"
"인천광역시 남동구 석정로552번길7",126.69700454202463,37.4655855814798,928990,1941011,,"21504","2820055100","2820010200","282004259460","2820010200106060021006099"
"인천광역시 남동구 문화서로49번길 16",126.69540866214433,37.44989123955816,928834,1939271,,"21566","2820052100","2820010100","282004259362","2820010100111210013000930"
"인천광역시 부평구 마장로251",126.70243443797209,37.5005044614746,929503,1944881,,"21370","2823758000","2823710300","282373154066","2823710300101990049010714"
"인천광역시 부평구 배곶로 50 ",126.69690652697773,37.472633457931565,928988,1941793,,"21452","2823769000","2823710200","282373154021","2823710200103010015002424"
"인천광역시 부평구 광장로 6",126.722627657114,37.49077835684202,931279,1943787,,"21404","2823751000","2823710100","282373154004","2823710100102240001005582"
"인천광역시 부평구 마장로 84",126.70817411214868,37.486211687671506,929997,1943291,,"21405","2823753000","2823710200","282373154066","2823710200101700061000546"
"인천광역시 부평구 안남로 307",126.70909547220478,37.510391918228244,930101,1945973,,"21313","2823759200","2823710400","282373008033","2823710400101920007014713"
"인천광역시 부평구 부영로 7",126.71777931850592,37.48601428473601,930846,1943262,,"21409","2823752000","2823710100","282373154025","2823710100107600368204101"
"인천광역시 서구 완정로 181",126.65613565518493,37.602348927710196,925512,1956216,,"22616","2826072000","2826012000","282603156068","2826012000106380003025711"
"인천광역시 서구  승학로402번길 ",,,,,,,,,,
"인천광역시 서구 원적로 59",126.67998810631609,37.49230177941763,927511,1943988,,"22817","2826060000","2826011200","282603154073","2826011200102120039000004"
"인천광역시 서구  가정로294번길 23",126.67534687890216,37.511116532933215,927119,1946079,,"22784","2826055000","2826011000","282604268038","2826011000104650002015797"
"인천광역시 서구  청라라임로 66",126.65384556097735,37.53343480263046,925241,1948572,,"22738","2826053600","2826012200","282603156124","2826010600107960004000001"
"인천광역시 서구  서달로 121 ",126.67847709582064,37.50941678527687,927394,1945888,,"22802","2826056100","2826011000","282603154071","2826011000104880001005303"
"인천광역시 서구  검단로 755 번길 9",126.68446293878809,37.61324683126786,928023,1957403,,"22620","2826069000","2826012100","282603000070","2826012100104420023031320"
"인천광역시 서구 가정로406번길 25",,,,,,,,,,
"인천광역시 계양구  오조산로 43 ",126.73832335863032,37.53470393885019,932706,1948649,,"21069","2824561400","2824510200","282453155028","2824510200110830001049126"
"인천광역시 계양구  안남로554번길 31 ",126.71414762517827,37.53249948803107,930568,1948422,,"21095","2824560100","2824510100","282454265312","2824510100100210026143411"
"인천광역시 계양구  계양산로 92",126.7258987164921,37.547548346437246,931620,1950083,,"21040","2824561200","2824510200","282453155007","2824510200109030002182089"
"인천광역시 계양구  장기서로 6 ",126.73457741520043,37.576718088220304,932413,1953313,,"21007","2824571000","2824512300","282453155035","2824512300100760001083761"
"인천광역시 계양구  계산천동로19번길 14 ",126.72578230321683,37.539102040017475,931602,1949146,,"21052","2824561100","2824510200","282454265059","2824510200109620036100910"
"인천광역시 강화군 송해면 강화대로 691 ",126.4656394918636,37.762039771277195,908892,1974102,,"23019","2871039000","2871039026","287102157001","2871039026103120003033857"
"인천광역시 강화군 길상면 온수길36번길 7 ",126.49096394006496,37.64014216552769,910977,1960553,,"23050","2871033000","2871033021","287104271531","2871033021105080003024072"
"인천광역시 강화군 삼산면 삼산북로 465",,,"","",,"23005","2871041000","2871041021","287103157027","2871041021102580003051253"
"인천광역시 강화군 교동면 대룡안길54번길 14",126.28119121463239,37.78143826867712,892673,1976450,,"23002","2871040000","2871040021","287104271259","2871040021105200002046298"
"인천광역시 강화군 서도면 주문도길 58",126.23966223554454,37.65162284473696,888822,1962095,,"23008","2871042000","2871042021","287104271584","2871042021202060005034228"
"인천광역시 강화군 불은면 강화동로 558 ",126.47974700923469,37.68540837974603,910042,1965586,,"23046","2871032000","2871032021","287103157003","2871032021102480004008872"
"인천광역시 강화군 화도면 마니산로732",126.41708461334663,37.63331317431472,904450,1959868,,"23060","2871034000","2871034022","287103157022","2871034022108010002032710"
"인천광역시 강화군 양도면 강화남로 722 ",126.42077890380544,37.66388317044863,904815,1963256,,"23057","2871035000","2871035021","287103157002","2871035021101810001020788"
"인천광역시 강화군 내가면 강화서로 243",126.38999401213928,37.71808971225641,902171,1969302,,"23018","2871036000","2871036021","287103157004","2871036021107840002014086"
"인천광역시 강화군 강화읍 동문안길 17",126.48715724372683,37.747580687351686,910770,1972477,,"23031","2871025000","2871025022","287104271322","2871025022104370000002480"
"인천광역시 강화군 선원면 대문고개로 4",126.4838626372968,37.71125715417587,910436,1968450,,"23043","2871031000","2871031021","287103157017","2871031021105450003006782"
"인천광역시 강화군 양사면 전망대로 1381-3",126.40718795914796,37.798789244668725,903791,1978238,,"23011","2871038000","2871038024","287103157034","2871038024108240000035391"
"인천광역시 강화군 하점면 강화대로 1186",126.41502802661914,37.77296787743099,904448,1975365,,"23015","2871037000","2871037021","287102157001","2871037021107200005033918"
"인천광역시 연수구  함박뫼로 11-8 ",126.67091365849335,37.41876049820936,926637,1935836,,"21915","2818576600","2818510400","281853008022","2818510400104650003065174"
"인천광역시 연수구  먼우금로45번길 5 ",126.66924645197652,37.402930008975154,926474,1934081,,"21971","2818579000","2818510500","281854256060","2818510500109430002000001"
"인천광역시 연수구  해돋이로 96",126.65158423484668,37.39113202234649,924899,1932786,,"21996","2818582000","2818510600","281853152037","2818510600100030034000001"
"인천광역시 연수구 송도과학로51번길 70",126.66932294170019,37.386787231010814,926465,1932290,,"21982","2818584000","2818510600","281854256369","2818510600101600003000001"
"인천광역시 연수구 비류대로 215",126.65893539137089,37.427788558764846,925586,1936847,,"21900","2818564000","2818510100","281852000014","2818510100103180001216234"
"인천광역시 연수구  선학로 58 ",126.70118067587664,37.42272755248462,929319,1936253,,"21938","2818575000","2818510200","281853152012","2818510200103410000015817"
"인천광역시 부평구 굴포로 7번길 43",126.72328485537476,37.513604727129355,931358,1946319,,"21333","2823764100","2823710600","282374262097","2823710600101800025101887"
"인천광역시 부평구  부개로 4번길",,,,,,,,,,
"인천광역시 부평구  주부토로 10",126.72378272018223,37.49612192039665,931386,1944379,,"21393","2823754000","2823710100","282373008034","2823710100102050001101984"
"인천광역시 부평구 일신로 31",,,,,,,,,,
"인천광역시 부평구  충선로 49번길 ",,,,,,,,,,
"인천광역시 남동구 장승남로47번길 7",126.73730138492708,37.4438054700592,932534,1938565,,"21594","2820058300","2820010300","282004259658","2820010300110190002007105"
"인천광역시 남동구 앵고개로 797",126.72364349778928,37.39361910660791,931280,1933007,,"21679","2820071000","2820011000","282003008020","2820011000107330009000004"
"인천광역시 남동구 남동대로239번길 112",126.69360521052741,37.40934506344051,928636,1934774,,"21632","2820070000","2820011000","282004259121","2820011000104500002010081"
"인천광역시 남동구 독곡로 30",126.74759204765455,37.43556994741724,933437,1937644,,"21604","2820065000","2820010500","282003153025","2820010500105580004000001"
"광주광역시 광산구  수완로 63",126.82847021285852,35.190927593508974,938864,1688608,,"62247","2920063700","2920011400","292003163026","2920011400111250000000001"
"광주광역시 광산구  첨단중앙로106번길 65-15",126.8464784217591,35.216309611307594,940522,1691412,,"62277","2920062600","2920011500","292004289610","2920011500108780002041596"
"광주광역시 광산구 사암로 106번길 3",126.80759624693532,35.153876571521494,936935,1684512,,"62372","2920058000","2920010900","292004289179","2920010900110530006000001"
"광주광역시 광산구  사암로 390번길 13-16",,,,,,,,,,
"광주광역시 광산구  상무대로 93",126.78541637958556,35.12901417559559,934895,1681769,,"62451","2920054000","2920010200","292002009004","2920010200112180058025976"
"광주광역시 광산구  신흥신기안길 31-6",126.80311812903751,35.144707666456675,936520,1683498,,"62380","2920055000","2920010400","292004289401","2920010400110600017034081"
"광주광역시 광산구  고봉로 124",126.79452811498064,35.18474738171148,935769,1687944,,"62209","2920064000","2920012500","292003163001","2920012500103910002043079"
"광주광역시 광산구  비아중앙로31번길 14",126.82383265288239,35.22168556009374,938465,1692022,,"62238","2920062000","2920011200","292004289178","2920011200100900005023076"
"광주광역시 광산구  평동로 790-16",126.75975488228319,35.12420738411705,932553,1681253,,"62420","2920067000","2920014500","292003163051","2920014500102420000000001"
"광주광역시 광산구  동곡로 155",126.7739092320556,35.09737717323336,933821,1678268,,"62461","2920066000","2920013800","292003163008","2920013800110800001025033"
"광주광역시 광산구  삼도로 341-3",126.70045934013504,35.16326175862449,927185,1685626,,"62406","2920068000","2920015600","292003163018","2920015600103200001041645"
"광주광역시 광산구  용진로 395",126.73052583191236,35.181625538356585,929939,1687641,,"62204","2920069000","2920016800","292003163036","2920016800104050001039690"
"광주광역시 광산구  하림길 1",126.74518567979942,35.21984114775666,931306,1691869,,"62201","2920065000","2920013400","292004289691","2920013400104540000024194"
"광주광역시 동구  예술길 31-5",126.91949244472326,35.149586144588774,947124,1683971,,"61474","2911052500","2911010500","291104277152","2911010500100150000007085"
"광주광역시 동구  양림로 119 번길 13",126.92097575105667,35.14011630230652,947253,1682920,,"61489","2911068500","2911012200","291103009004","2911012200100740021011712"
"광주광역시 동구  필문대로 157",126.93200303654068,35.15661562669998,948268,1684744,,"61411","2911059000","2911011000","291102009007","2911011000105390029000001"
"광주광역시 동구  남문로 570 ",126.93344994308092,35.12210500386256,948378,1680916,,"61502","2911074000","2911011900","291103159003","2911011900106740000015240"
"광주광역시 동구  지호로 131",126.94278987890168,35.14944304492513,949246,1683943,,"61447","2911063000","2911011100","291103159016","2911011100100770001000001"
"광주광역시 서구  운천로 30",126.8593980440884,35.135324954034026,941640,1682423,,"62036","2914082100","2914013000","291403160035","2914013000107650000019839"
"광주광역시 서구  상무연하로 106",126.8505482869455,35.15776631399551,940850,1684917,,"61947","2914074500","2914012000","291403160020","2914012000112030004000001"
"광주광역시 서구  화운로 160",126.87694511668288,35.153198052215444,943251,1684395,,"61979","2914076000","2914011900","291403160065","2914011900107850007022963"
"광주광역시 서구  화정로 316",126.89032709543953,35.15044379478443,944468,1684082,,"61931","2914066000","2914010600","291403160058","2914010600106300010025788"
"광주광역시 서구  유림로98번길 6",126.86442294400244,35.170923575175244,942123,1686368,,"61903","2914084000","2914013300","291404280560","2917010800112790000000001"
"광주광역시 서구  염화로134번길 84",,,,,,,,,,
"광주광역시 서구  풍암1로 33",126.87888761278482,35.12439853656748,943408,1681200,,"62063","2914083000","2914012800","291403160047","2914012800111250002000001"
"광주광역시 남구  월산로 30 ",126.90061691535571,35.141072309852724,945399,1683037,,"61650","2915560500","2915510400","291553009015","2915510400101170016000001"
"광주광역시 남구  대남대로149번길 8",126.9086231385275,35.13296922859568,946123,1682134,,"61688","2915553700","2915510600","291554283153","2915510600112620010000001"
"광주광역시 남구  화산로 27",126.89974300258812,35.11206904041918,945300,1679821,,"61715","2915571000","2915510800","291553009009","2915510800105000036031526"
"광주광역시 남구  천변좌로 410 ",126.91523616012087,35.142974204139755,946732,1683240,,"61640","2915554500","2915510100","291553009007","2915510100101770000030036"
"광주광역시 남구  회재로1217번길 7",126.89346852677743,35.13395834516987,944743,1682252,,"61608","2915570000","2915510600","291554283720","2915510600100900014010268"
"광주광역시 남구  고싸움로 136",126.83455602085881,35.08023202728296,939336,1676328,,"61751","2915573000","2915512000","291553161001","2915512000104110033015917"
"광주광역시 북구  중문로 63",126.9198376974326,35.178271003844074,947174,1687152,,"61190","2917062000","2917011000","291703162069","2917011000106330003021165"
"광주광역시 북구  북문대로 240",126.86614210199357,35.18711807636581,942291,1688163,,"61096","2917061500","2917010800","291702009002","2917010800111560001048587"
"광주광역시 북구  군왕로 146",126.9331549351673,35.17415917482616,948384,1686689,,"61155","2917066200","2917011400","291703162002","2917011400108260043000001"
"광주광역시 북구  문화소통로 78",126.90250265833944,35.183434628393904,945599,1687734,,"61177","2917059000","2917010700","291703162018","2917010700114170002000001"
"광주광역시 북구  설죽로 489",126.89817378197712,35.20300710442356,945218,1689907,,"61040","2917066900","2917012700","291703162033","2917012700108400005000001"
"광주광역시 북구  대천로 146",126.92151094669471,35.18701649320019,947332,1688121,,"61129","2917065600","2917011200","291703162009","2917011200109960007036691"
"광주광역시 북구  태봉로 57",126.9050379889151,35.16257271058993,945816,1685419,,"61251","2917058000","2917010600","291703162079","2917010600100130007030648"
"광주광역시 북구  본촌마을길102번길 17",126.87968749083544,35.21854920124426,943546,1691641,,"61027","2917069500","2917012600","291704286279","2917012600106490000045427"
"광주광역시 북구  동문대로 642 ",126.94883236341481,35.21387932371359,949836,1691086,,"61140","2917068500","2917012100","291702162002","2917012100106850001037549"
"대전광역시 중구  보문로 162번길 22",127.42702000739277,36.31806589663182,993449,1813415,,"34937","3014063000","3014011000","301404295350","3014011000100770057013419"
"대전광역시 중구  중앙로 14",127.41400325708952,36.32252890819947,992281,1813911,,"34944","3014072000","3014011600","301403164033","3014011600100010004031154"
"대전광역시 중구 문화로 115-2",127.39835169642254,36.3128520495261,990875,1812839,,"34985","3014071000","3014011500","301403165047","3014011500102710014020842"
"대전광역시 중구 보문산로 193",127.40190255817359,36.30607538011394,991193,1812087,,"35007","3014073000","3014011600","301403010022","3014011600105840009021621"
"대전광역시 중구 우암로 14-1",127.42116638703504,36.33406460269568,992925,1815190,,"34831","3014053500","3014010200","301403010014","3014010200100770016001252"
"대전광역시 중구  대종로 661-1",127.41254754331014,36.33911626501124,992152,1815751,,"34812","3014056000","3014010400","301403010004","3014010400101020004001325"
"대전광역시 동구  동서대로1695번길 54",127.43697444524959,36.35190649466067,994345,1817168,,"34551","3011064000","3011011500","301104292211","3011011500100680026000001"
"대전광역시 동구  역전시장길 7",127.43388260706575,36.33103411023861,994066,1814853,,"34629","3011051500","3011011900","301104292401","3011011900100010286022715"
"대전광역시 동구  우암로 304",127.44930433712946,36.34664735870735,995451,1816584,,"34507","3011063000","3011011400","301103010014","3011011400101710004007287"
"대전광역시 동구  대전로 501",127.44887152046299,36.30976497711269,995410,1812493,,"34690","3011053000","3011010400","301103010002","3011010400100680007032884"
"대전광역시 동구  옥천로 403",127.47445121551321,36.330671018250214,997707,1814811,,"34500","3011072500","3011012200","301103000091","3011012200105650000000004"
"대전광역시 동구  산내로 1332",127.46750750490573,36.282265212860395,997082,1809442,,"34703","3011074000","3011013600","301103000089","3011013600101920002000001"
"대전광역시 서구  계백로 1366",127.3739825511407,36.31026845230699,988687,1812555,,"35400","3017053000","3017010300","301703000095","3017010300101890007031345"
"대전광역시 서구  갈마로 246",127.38108696444212,36.33383310707931,989328,1815168,,"35314","3017057500","3017011000","301703166004","3017011000100020000023153"
"대전광역시 서구  관저로 65",127.32899338967584,36.29918664133272,984646,1811332,,"35371","3017059700","3017011600","301703166008","3017011600111350000019037"
"대전광역시 서구  용소로40번길 7",127.35234149557178,36.30902659354712,986744,1812420,,"35369","3017059000","3017011400","301704298634","3017011400111740000000001"
"대전광역시 대덕구  대덕대로 1427",,,,,,,,,,
"대전광역시 대덕구  한밭대로 1084",127.41885689412152,36.35842271908744,992720,1817892,,"34426","3023054600","3023010900","302302010004","3023010900102590010023136"
"대전광역시 대덕구  동춘당로 63",127.44225987704857,36.36340380432636,994820,1818443,,"34420","3023054300","3023010700","302303168007","3023010700105010002021682"
"대전광역시 대덕구  대전로 1386",127.42139041752796,36.37723050893758,992949,1819978,,"34360","3023052500","3023010300","302303010002","3023010300102470007007381"
"대전광역시 서구 둔산남로 9번길 21",127.37794355876021,36.348894709959836,989048,1816839,,"35234","3017064000","3017011200","301704298316","3017011200111580001022312"
"대전광역시 서구 신갈마로 211",127.36835281901004,36.35265296959887,988188,1817257,,"35275","3017058200","3017011100","301703166037","3017011100102930012004610"
"대전광역시 서구 청사로 27-7",127.36683542854632,36.36016111563078,988053,1818090,,"35210","3017058800","3017011300","301703166051","3017011300103100001020177"
"대전광역시 서구 청사로 277",127.39467909625829,36.35995450241631,990551,1818064,,"35205","3017063000","3017011200","301703166051","3017011200109080004020110"
"대전광역시 유성구  문화원로 136",127.35074407267948,36.35814068131478,986609,1817868,,"34185","3020053000","3020011100","302003167023","3020011100106760001012930"
"대전광역시 유성구  가정로 318",127.37809830883677,36.38544323430399,989067,1820893,,"34130","3020055000","3020012700","302003167001","3020012700103940002005756"
"대전광역시 유성구  은구비로 72",127.32312885608782,36.37584525806378,984135,1819836,,"34084","3020054700","3020012000","302003167058","3020012000109210000009111"
"대전광역시 유성구 신성로 71",127.34849802842743,36.38982688116324,986413,1821383,,"34107","3020055000","3020012500","302003167040","3020012500101410002005455"
"대전광역시 유성구 복용북로75번길 19",127.3160595036728,36.34319887919638,983494,1816216,,"34162","3020053000","3020011600","302004301547","3020011600105970001000001"
"대전광역시 유성구 구룡달전로 21",127.38361413476777,36.44003647143591,989569,1826948,,"34006","3020058000","3020014500","302003000097","3020014500102960000000001"
"대전광역시 유성구  원내동 95",127.32076585734713,36.302681611308216,983908,1811721,,"34227","3020052000","3020010100","302004301306","3020010100100950000000001"
"울산광역시 중구 종가5길 55",129.29727720750836,35.560028691004156,1162888,1730822,,"44539","3111060000","3111011000","311104307550","3111011100102160001000001"
"울산광역시 중구 학산로 7",129.3296643557877,35.555944369180445,1165832,1730423,,"44520","3111051000","3111010100","311103169022","3111010100103490004018086"
"울산광역시 중구 병영성7길 11",129.34602831773796,35.579179111067994,1167267,1733028,,"44483","3111063000","3111011400","311104307234","3111011400100610006000001"
"울산광역시 중구 반구정10길 4",129.3414049181091,35.556054062438335,1166896,1730455,,"44501","3111052000","3111011800","311104307184","3111011800105830003018992"
"울산광역시 중구 성안로 257",129.32290509423777,35.58092847163151,1165168,1733183,,"44416","3111065000","3111010900","311103169014","3111010900103790007000001"
"울산광역시 남구 돋질로 118",129.31855460712092,35.53931729383269,1164859,1728560,,"44692","3114056000","3114010500","311403170015","3114010500106360001013622"
"울산광역시 남구 번영로 217",129.32449249396345,35.54435719132033,1165387,1729129,,"44687","3114055000","3114010400","311403169026","3114010400101300006009209"
"울산광역시 남구 수암로 277",129.3352598406272,35.52216076803239,1166409,1726685,,"44766","3114067000","3114010800","311403170032","3114010800103850028003107"
"울산광역시 남구 대공원입구로21번길 16",129.29254476275614,35.53428869827644,1162511,1727959,,"44662","3114060000","3114010200","311404310863","3114010200102490014000001"
"울산광역시 남구 신복로22번길 22",129.26000456649703,35.550752123862885,1159528,1729732,,"44603","3114059500","3114010100","311404310568","3114010100115320003000001"
"울산광역시 남구 화합로194번길 17",129.34139481456012,35.542107856477145,1166924,1728908,,"44713","3114057000","3114010600","311404310842","3114010600115540002005685"
"울산광역시 동구 월봉12길 77",129.42116039474737,35.49107317564486,1174266,1723385,,"44083","3117053000","3117010200","311704313186","3117010200108800032013971"
"울산광역시 동구 진성4길 20",129.42872024758265,35.50897355371295,1174913,1725384,,"44044","3117056000","3117010400","311704313228","3117010400106510006000001"
"울산광역시 동구 동해안로 54",129.4290926275408,35.54203455697179,1174875,1729052,,"44007","3117058000","3117010700","311703000101","3117010700106180001004684"
"울산광역시 동구 방어진순환도로 961",129.4329893063643,35.526998280756374,1175261,1727391,,"44026","3117059000","3117010800","311702011001","3117010800102310000013288"
"울산광역시 북구 화봉로 83",129.36814075591604,35.58859256549294,1169251,1734110,,"44241","3120057000","3120012500","312003172029","3120012500104500002010159"
"울산광역시 북구 명촌21길14",,,,,,,,,,
"울산광역시 북구 호계로 194",129.35584832982656,35.62166024221896,1168068,1737757,,"44229","3120051000","3120010200","312003172027","3120010200108620002016306"
"울산광역시 북구 아진로 74",129.34061726536993,35.63008860723829,1166671,1738666,,"44208","3120053000","3120010700","312003172021","3120010700103580031019924"
"울산광역시 북구 염포로 549",129.38543679720323,35.54253593702966,1170916,1729031,,"44260","3120058000","3120012400","312003169028","3120012400106040006004847"
"울산광역시 북구 강동산하13로 37",,,,,,,,,,
"울산광역시 울주군 서생면 해맞이로 867",129.3230612599267,35.34814348633036,1165659,1707362,,"45014","3171031000","3171031021","317103173096","3171031021103940000028687"
"울산광역시 울주군 범서읍 대리로 12",129.2439739911554,35.57153985953553,1158034,1732012,,"44922","3171025900","3171025927","317103173020","3171025927201380007000002"
"울산광역시 울주군 언양읍 남천둑길 7",,,,,,,,,,
"울산광역시 울주군 온양읍 남창2길 30",129.28229359509618,35.41724183185395,1161816,1714959,,"44974","3171025600","3171025624","317104319145","3171025624101540003004178"
"울산광역시 울주군 온산읍 덕신로 229",129.30671792079144,35.43388171089156,1164000,1716845,,"45003","3171025000","3171025032","317103173026","3171025032105790002003177"
"울산광역시 울주군 두동면 대밀길 25",129.20147560164637,35.65469084495408,1154023,1741168,,"44915","3171036000","3171036022","317104319210","3171036022106490003022868"
"울산광역시 울주군 상북면 상북로 294",129.08968921737406,35.591037458946715,1144017,1733938,,"44902","3171038000","3171038023","317103173050","3171038023104060001018322"
"울산광역시 울주군 삼남면 중남로 47",129.1074600730749,35.53584355817669,1145727,1727842,,"44953","3171039000","3171039025","317103173074","3171039025100190002008950"
"울산광역시 울주군 청량읍 온산로 767",129.30574775637277,35.49545250874705,1163787,1723673,,"44984","3171026200","3171026223","317103170061","3171033023105200006021166"
"울산광역시 울주군 웅촌면 곡천검단로 15",129.20594459965488,35.46344910749146,1154795,1719962,,"44965","3171034000","3171034023","317103173007","3171034023102600007000001"
"세종특별자치시  금남면 용포로 62",127.28111928672357,36.464017340579595,980389,1829624,,"30083","3611034000","3611034021","361103258023","4473034021101200003029730"
"세종특별자치시   노을3로 31",127.25912606960183,36.48033758263236,978423,1831439,,"30130","3611051000","3611010600","361103258060","4473033033105490000000002"
"세종특별자치시   보듬3로 113",127.24705776150516,36.51143297668263,977351,1834891,,"30100","3611053000","3611011300","361103258090","3611011300101030000000001"
"세종특별자치시 남세종로 440",127.29100467725752,36.477738187277446,981278,1831144,,"30150","3611056000","3611010300","361103350790","3611010300106700000000001"
"세종특별자치시  조치원읍 새내로 140",127.29805441389206,36.60436755003606,981939,1845189,,"30024","3611025000","3611025024","361103258013","4473025024100100004037946"
"세종특별자치시  부강면 청연로 606-1",127.32465770845926,36.55855909966513,984309,1840103,,"30069","3611032000","3611032027","361103258069","4473031030101120002027483"
"세종특별자치시  전의면 만세길 6 ",127.20342046474106,36.67908376468055,973501,1853499,,"30004","3611037000","3611037021","361104574135","4473035021102660001010846"
"세종특별자치시  전동면 하노장4길 9",127.26477914917342,36.65580904194387,978977,1850902,,"30011","3611038000","3611038021","361104574527","4473036021105850009007279"
"세종특별자치시  부강면 부강신대길 72-2",127.36447674818817,36.53089854773641,987868,1837029,,"30076","3611033000","3611033021","361104574720","4371038021004120002030118"
"경기도 수원시 장안구 송정로 113",127.00953685391441,37.29579130118339,956530,1921984,,"16308","4111159700","4111113600","411113174006","4111113600106800001037629"
"경기도 수원시 장안구 이목로 58",126.98812447410819,37.310447325563864,954641,1923620,,"16347","4111156000","4111112900","411113174010","4111112900105660014076078"
"경기도 수원시 팔달구 수성로182번길 3",126.99316924198092,37.28684366010394,955074,1920999,,"16435","4111569000","4111513800","411154328194","4111513800106470001000001"
"경기도 수원시 장안구 경수대로 758",127.02196716090698,37.29095662623886,957629,1921442,,"16221","4111160000","4111113700","411112012008","4111113700102540011074186"
"경기도 수원시 팔달구 경수대로 621",127.02972384630951,37.28093718719769,958311,1920327,,"16249","4111570000","4111513900","411152012008","4111513900104800006016400"
"경기도 수원시 장안구 서부로 2124",126.97167912965548,37.298008028414166,953176,1922248,,"16417","4111156600","4111113200","411113012005","4111113200104970007044894"
"경기도 수원시 찰달구 창룡대로 48",,,,,,,,,,
"경기 수원시 팔달구 장다리로 312",127.03143672999424,37.27576097329269,958460,1919752,,"16484","4111573000","4111514100","411153175043","4111514100109300001015024"
"경기 수원시 영통구 매영로 93-18",127.05307904407942,37.268723645347876,960375,1918962,,"16527","4111752000","4111710100","411173177003","4111710100112130002001405"
"경기 수원시 권선구 권중로77",127.03001745586526,37.25185036250057,958321,1917100,,"16558","4111368000","4111313700","411133176023","4111313700112680000054309"
"경기 수원시 영통구 청명로 92",127.07793567258824,37.25487026811703,962572,1917415,,"16709","4111757000","4111710500","411173177014","4111710500110460002001066"
"경기 수원시 팔달구 동수원로 403",127.03985966178846,37.265139536810516,959201,1918570,,"16488","4111573000","4111514100","411153175016","4111514100111170001000001"
"경기 수원시 권선구 정조로 370",127.01524764665817,37.242740794703366,957006,1916096,,"16660","4111353000","4111312600","411133012006","4111312600111670033029557"
"경기 수원시 권선로 699번길 24-23",,,,,,,,,,
"경기 수원시 영통구 영통로 143",127.05542250669531,37.24036550987875,960568,1915815,,"16688","4111759600","4111710700","411173177018","4111710700103960001003090"
"경기 수원시 영통구 에듀타운로 82",127.04769277435102,37.28863298713212,959908,1921173,,"16509","4111760000","4111710300","411173177033","4111710300113470006000001"
"경기도 수원시 팔달구 덕영대로 944",127.00162062591068,37.26435376557936,955810,1918500,,"16622","4111566000","4111513400","411153012001","4111513400100180000053366"
"경기 수원시 권선구 여기산로 26번길 18-50",126.98142777197569,37.281555727703164,954030,1920418,,"16429","4111356000","4111313100","411134325386","4111313100102560002067887"
"경기 수원시 권선구 서부로 1673",126.97226929764399,37.258737088004345,953204,1917891,,"16626","4111356000","4111313300","411133012005","4111313300109110000027412"
"경기도 수원시 팔달구 고등동 고등로 50",127.00247689355041,37.273055808142495,955891,1919465,,"16454","4111567000","4111513700","411153176001","4111513700101050025010904"
"경기도 수원시 권선구 금곡동 금곡로 190",126.95144823710795,37.273199921632056,951367,1919506,,"16397","4111366200","4111313400","411133175011","4111313400103310000055234"
"경기도 수원시 팔달구 매교동 매산로 116번길 50",127.01439034476331,37.269157176299764,956945,1919027,,"16464","4111565000","4111513300","411154328144","4111513300100770063014347"
"경기도 수원시 권선구 당진로 32번길 28-4",126.9418477721474,37.291768716665715,950528,1921571,,"16375","4111370000","4111314100","411134325167","4111314100101590001022477"
"경기도 안양시 동안구 흥안대로223번길 30-1",126.96621689659295,37.37634959373731,952741,1930942,,"14106","4117363000","4117310400","411734349225","4117310400111180001008478"
"경기도 안양시 동안구 동편로 190",126.97010731054992,37.40613042789271,953104,1934244,,"13930","4117355000","4117310200","411733183022","4117310200117300000000001"
"경기도 안양시 동안구 관악대로 125",126.93805861992868,37.3991140087369,950263,1933482,,"13922","4117351000","4117310100","411732182001","4117310100104590057003494"
"경기도 안양시 동안구 경수대로508번길 17",126.95888831569185,37.368248978804225,952087,1930047,,"14123","4117360000","4117310400","411734349014","4117310400110060009008290"
"경기도 안양시 동안구 평촌대로217번길 57",126.9527910915548,37.38983588104589,951561,1932445,,"14072","4117361000","4117310400","411734349200","4117310400110510002008414"
"경기도 안양시 동안구 관평로138번길 43",126.96444584502964,37.39033091233366,952593,1932494,,"14068","4117357600","4117310300","411734349077","4117310300108960005010807"
"경기도 안양시 만안구 안양로170번길 20",126.9305833899921,37.389604836505505,949595,1932431,,"14033","4117156000","4117110100","411714346182","4117110100104410001010415"
"경기도 안양시 만안구 병목안로 56",,,,,,,,,,
"경기도 안양시 만안구 경수대로 1161",126.91841477828082,37.41472085997348,948535,1935224,,"13958","4117152000","4117110100","411712012008","4117110100100420017007931"
"경기도 안양시 만안구 박달로 492",126.90720087803308,37.40229839464138,947534,1933852,,"14008","4117163000","4117110300","411713012043","4117110300100940136012022"
"경기도 군포시 군포로 511",126.94458514672804,37.35214718338799,950810,1928268,,"15860","4141051000","4141010100","414103200004","4141010100107750018010480"
"경기도 군포시 수리산로203번길 51",126.92658011882877,37.36790746562087,949226,1930026,,"15820","4141062000","4141010400","414104400288","4141010400111050004008105"
"경기도 군포시 대야1로 24번길 4",126.91750485587701,37.3278419571621,948395,1925586,,"15887","4141061000","4141010800","414104400189","4141010800102420001000864"
"경기도 군포시 군포로 683번길 31",126.94404535167435,37.36562924678651,950771,1929764,,"15812","4141056000","4141010500","414104400063","4141010500109040000007473"
"경기도 군포시 번영로 6-4",126.93997032649814,37.32282156106817,950382,1925017,,"15880","4141052000","4141010300","414103200025","4141010300111110001000002"
"성남시 수정구 모란로 1",127.12842010494977,37.433820242962575,967127,1937249,,"13314","4113158000","4113110300","411313178010","4113110300147950000027534"
"성남시 수정구 시민로 150",127.14407241047763,37.44161119262327,968515,1938108,,"13352","4113153000","4113110100","411313178033","4113110100137750000030480"
"성남시 수정구 수정로 145",127.13625679250264,37.442461728271994,967824,1938205,,"13292","4113155000","4113110200","411313178018","4113110200134980002049064"
"성남시 수정구 수정남로 317",127.15289026967946,37.456239613438875,969301,1939728,,"13123","4113160000","4113110500","411313178017","4113110500106700000025944"
"성남시 수정구 단대로 15",127.15818805004336,37.4523971938464,969768,1939300,,"13144","4113159000","4113110400","411313178006","4113110400101010004000001"
"성남시 수정구 탄리로 21",127.13887512844386,37.43866597140073,968054,1937783,,"13332","4113157000","4113110300","411313178031","4113110300119210000067665"
"성남시 수정구 남문로 128",127.14101266790011,37.44791153228791,968247,1938808,,"13279","4113156100","4113110200","411313178003","4113110200172900000013162"
"성남시 수정구 고등공원로 47",127.10035269675897,37.42974461790695,964642,1936807,,"13105","4113164000","4113111200","411313352361","4113111200100000000000049"
"성남시 수정구 복정로 36",127.12750676657792,37.456171345994925,967056,1939729,,"13119","4113162000","4113110700","411313178011","4113110700106950000000001"
"성남시 수정구 위례동로 135-2",127.1496715286259,37.47240966597087,969023,1941523,,"13642","4113162500","4113110800","411313202060","4113110800105130004000002"
"경기도 성남시 중원구 산성대로 190-6",127.13998405409336,37.43607340414279,968151,1937495,,"13357","4113351000","4113310100","411332179002","4113310100121990000057961"
"경기도 성남시 중원구 산성대로 408번길 26-1",127.16136464176034,37.44748485732824,970047,1938754,,"13177","4113354000","4113310300","411334337220","4113310300134640000012422"
"경기도 성남시 중원구 둔촌대로 439",127.16577057770317,37.43295827241986,970431,1937141,,"13228","4113357000","4113310500","411332179001","4113310500114370000032153"
"경기도 성남시 중원구 희망로 373",127.15858736637107,37.43916622546516,969798,1937832,,"13394","4113358000","4113310500","411333179026","4113310500131540001039935"
"경기도 성남시 중원구 은행로25번길 14",127.16539752174671,37.455815988841024,970407,1939677,,"13156","4113356000","4113310400","411334337346","4113310400114170001061369"
"경기도 성남시 중원구 도촌북로 43",127.1545941813256,37.417629829378214,969436,1935444,,"13420","4113367000","4113310700","411333179024","4113310700106310000000001"
"경기도 성남시 분당구 야탑로 76",127.12737581045221,37.409615074171754,967024,1934564,,"13520","4113563000","4113510700","411353180041","4113510700105050000046287"
"경기도 성남시 분당구 중앙공원로31번길 30",127.12625709878107,37.38231783245205,966913,1931536,,"13588","4113558000","4113510500","411354340389","4113510500100890005028753"
"경기도 성남시 분당구 성남대로171번길 12",127.10728219502045,37.35161839001334,965219,1928137,,"13615","4113566200","4113511100","411354340260","4113511100101730000047586"
"경기도 성남시 분당구 운중로146번길 6",127.07893744909838,37.39073993405372,962728,1932488,,"13466","4113568000","4113511500","411354340340","4113511500109380000000002"
"경기도 성남시 분당구 동판교로266번길 24",127.11575265825081,37.40654924917813,965994,1934228,,"13490","4113565500","4113510900","411354334616","4113510900107160000000001"
"경기도 성남시 분당구 불정로 253",127.12628910859422,37.36676010172746,966909,1929810,,"13600","4113554000","4113510200","411353180030","4113510200100850000031051"
"경기도 성남시 분당구 구미로 107",127.1207345808169,37.33946654545589,966405,1926784,,"13623","4113567000","4113511400","411353180001","4113511400102230000053045"
"경기도 부천시 성주로 147",126.77269152332555,37.47935259597572,935695,1942484,,"14734","4119074600","4119011400","411903185006","4119710500106110002023639"
"경기도 부천시 경인로 363",126.79601790519543,37.48245032080275,937760,1942812,,"14690","4119075000","4119011000","411903000028","4119710100100510000007659"
"경기도 부천시 범안로 131",126.80936442262588,37.470162528400564,938930,1941440,,"14783","4119079500","4119011200","411903000027","4119710300101560000035611"
"경기도 부천시 원미구 조마루로311번길 84",126.77693114382807,37.5018222165015,936089,1944974,,"14549","4119074200","4119010800","411904352478","4119510800111050000039691"
"경기도 부천시 장말로 337",126.77988610977714,37.49099704396961,936341,1943771,,"14631","4119060300","4119010200","411903184014","4119510200104280002010517"
"경기도 부천시 석천로 203-16",126.76249027503529,37.50576195688808,934816,1945421,,"14537","4119074200","4119010800","411903184019","4119510800110320001005178"
"경기도 부천시 상일로 99",126.75343113249848,37.491779237656196,934003,1943876,,"14597","4119074400","4119010900","411903184006","4119510900103960003020408"
"경기도 부천시 조마루로 252",126.77166341333836,37.49787800514322,935620,1944540,,"14581","4119074200","4119010800","411903184016","4119510800111840001008447"
"경기도 부천시 원미로 149번길 4",126.79086617790752,37.49618312957672,937316,1944339,,"14567","4119060600","4119010100","411904352414","4119510100100570000024212"
"경기도 부천시 부일로711번길 29",126.80824429476716,37.486173015045814,938844,1943217,,"14672","4119060600","4119010700","411904352117","4119510700100530011028634"
"경기도 부천시 중동로 388번길 6",126.77042824911594,37.51436502676073,935525,1946370,,"14516","4119074200","4119010500","411904352529","4119510500100970001043178"
"경기도 부천시 오정구 신흥로 411(삼정동)",126.77490685721988,37.52044964587726,935926,1947042,,"14451","4119083000","4119012300","411903185020","4119910700101960000011775"
"경기도 부천시 오정구 소사로 778(원종동)",126.80524384102326,37.525562363260136,938611,1947589,,"14419","4119083000","4119012000","411903012096","4119910400102330011035946"
"경기도 부천시 오정구 역곡로 519(고강동)",126.81573070764121,37.53096856940394,939542,1948182,,"14403","4119080000","4119012100","411903184012","4119910500102760001005826"
"경기도 부천시 오정구 삼작로352번길 42(여월동)",126.80068572237083,37.51800020948332,938202,1946753,,"14462","4119080000","4119011800","411904358120","4119910200100080036003670"
"\"경기도 광명시 철산로29번길 16(철산동, 철산지구대)\"",126.8689973049169,37.47804038205491,944209,1942277,,"14232","4121061000","4121010200","412104361283","4121010200102410003004609"
"\"경기도 광명시 범안로 1027(하안동,하안지구대)\"",126.87728844829229,37.461571504834424,944930,1940445,,"14248","4121063200","4121010300","412103000027","4121010300106500005012347"
"\"경기도 광명시 금하로 500(소하동, 소하지구대)\"",126.88834033296598,37.449920561703266,945899,1939146,,"14317","4121064000","4121010400","412103000024","4121010400113100000000001"
"\"경기도 광명시 오리로991번길 6(광명동, 광명지구대)\"",126.85282442097696,37.479304934485114,942780,1942427,,"14286","4121055000","4121010100","412104361267","4121010100101580834007434"
"\"경기도 광명시 광명로 772(광명동, 광남지구대)\"",126.84858264268468,37.46893406433224,942397,1941279,,"14281","4121057000","4121010100","412103000122","4121010100107520004007223"
"\"경기도 광명시 서독로418(일직동,일직파출소)\"",,,,,,,,,,
"경기도 안산시 단원구 화랑로 373",126.8293284199184,37.32137182792024,940578,1924920,,"15335","4127352500","4127310100","412733190080","4127310100105140000046834"
"경기도 안산시 단원구 화랑로 397",126.83209417968077,37.32130634806968,940823,1924911,,"15335","4127353200","4127310100","412733190080","4127310100105150000003750"
"경기도 안산시 단원구 광덕2로 127",126.82487913199829,37.31028661654749,940175,1923693,,"15473","4127353500","4127310100","412733191003","4127310100107120003035564"
"경기도 안산시 단원구 선부로 323",126.82897490735702,37.34335437899239,940564,1927359,,"15245","4127351000","4127310200","412733191039","4127310200100790002000001"
"경기도 안산시 단원구 선부광장1로 150",126.80918614955361,37.33202738515232,938802,1926115,,"15367","4127358000","4127310900","412733191034","4127310900110720005017446"
"경기도 안산시 단원구 선여불로 19",126.80387126985046,37.34406562626262,938341,1927454,,"15220","4127359000","4127310900","412733191041","4127310900107030003000001"
"경기도 안산시 단원구 선삼로 2길 14-20",126.81269304029601,37.34482027988445,939123,1927532,,"15212","4127360000","4127310900","412734373186","4127310900111350000020206"
